[
  {
    "id": "cobe-homestay",
    "name": "COBE Homestay",
    "address": "18 Hải Thượng Lãng Ông, Phường Quy Nhơn",
    "latitude": 13.765912,
    "longitude": 109.226361,
    "phone": "02563817929",
    "type": "Khách sạn",
    "star_rating": 3,
    "price_range": "",
    "province": "Bình Định",
    "region": "Quy Nhơn",
    "legacy_province": "Bình Định",
    "region_focus": "coastal_quy_nhon"
  },
  {
    "id": "khach-san-khang-hy",
    "name": "Khách sạn Khang Hy",
    "address": "27/1 Hải Thượng Lãng Ông, Phường Quy Nhơn",
    "latitude": 13.76585,
    "longitude": 109.226297,
    "phone": null,
    "type": "Khách sạn",
    "star_rating": 3,
    "price_range": "",
    "province": "Bình Định",
    "region": "Quy Nhơn",
    "legacy_province": "Bình Định",
    "region_focus": "coastal_quy_nhon"
  },
  {
    "id": "haven-vietnam",
    "name": "Haven Vietnam",
    "address": "QL1D, khu vực 1, Phường Quy Nhơn Nam",
    "latitude": 13.685678,
    "longitude": 109.231095,
    "phone": "0256 3840 000",
    "type": "Khách sạn",
    "star_rating": 3,
    "price_range": "",
    "province": "Bình Định",
    "region": "Quy Nhơn",
    "legacy_province": "Bình Định",
    "region_focus": "coastal_quy_nhon"
  },
  {
    "id": "homestay-quynh-anh",
    "name": "Homestay Quỳnh Anh",
    "address": "40 Xuân Diệu, Phường Quy Nhơn",
    "latitude": 13.771065,
    "longitude": 109.247875,
    "phone": "0779001008",
    "type": "Khách sạn",
    "star_rating": 3,
    "price_range": "",
    "province": "Bình Định",
    "region": "Quy Nhơn",
    "legacy_province": "Bình Định",
    "region_focus": "coastal_quy_nhon"
  },
  {
    "id": "hostel-hoang-son",
    "name": "Hostel Hoàng Sơn",
    "address": "152 Nguyễn Huệ, Phường Quy Nhơn",
    "latitude": 13.7644,
    "longitude": 109.223432,
    "phone": "0935727236",
    "type": "Khách sạn",
    "star_rating": 3,
    "price_range": "",
    "province": "Bình Định",
    "region": "Quy Nhơn",
    "legacy_province": "Bình Định",
    "region_focus": "coastal_quy_nhon"
  },
  {
    "id": "hostel-an-thinh-phu",
    "name": "Hostel An Thịnh Phú",
    "address": "283 Nguyễn Huệ, Phường Quy Nhơn",
    "latitude": 13.76934,
    "longitude": 109.231201,
    "phone": "02563823006",
    "type": "Khách sạn",
    "star_rating": 3,
    "price_range": "",
    "province": "Bình Định",
    "region": "Quy Nhơn",
    "legacy_province": "Bình Định",
    "region_focus": "coastal_quy_nhon"
  },
  {
    "id": "happy-house",
    "name": "Happy House",
    "address": "83 Phạm Ngọc Thạch, Phường Quy Nhơn",
    "latitude": 13.768283,
    "longitude": 109.223221,
    "phone": "0983129449",
    "type": "Khách sạn",
    "star_rating": 3,
    "price_range": "",
    "province": "Bình Định",
    "region": "Quy Nhơn",
    "legacy_province": "Bình Định",
    "region_focus": "coastal_quy_nhon"
  },
  {
    "id": "hostel-ngoc-huong",
    "name": "Hostel Ngọc Hương",
    "address": "221 Nguyễn Huệ, Phường Quy Nhơn",
    "latitude": 13.767904,
    "longitude": 109.228157,
    "phone": "0961380933",
    "type": "Khách sạn",
    "star_rating": 3,
    "price_range": "",
    "province": "Bình Định",
    "region": "Quy Nhơn",
    "legacy_province": "Bình Định",
    "region_focus": "coastal_quy_nhon"
  },
  {
    "id": "homestay-nha-tui",
    "name": "Homestay Nhà Tui",
    "address": "377 Đống Đa, Phường Quy Nhơn",
    "latitude": 13.78197,
    "longitude": 109.23175,
    "phone": "0935442355",
    "type": "Khách sạn",
    "star_rating": 3,
    "price_range": "",
    "province": "Bình Định",
    "region": "Quy Nhơn",
    "legacy_province": "Bình Định",
    "region_focus": "coastal_quy_nhon"
  },
  {
    "id": "house-coffee-homestay",
    "name": "House coffee & Homestay",
    "address": "51 Nguyễn Huệ, Phường Quy Nhơn",
    "latitude": 13.771938,
    "longitude": 109.239201,
    "phone": "0905.668.997",
    "type": "Khách sạn",
    "star_rating": 3,
    "price_range": "",
    "province": "Bình Định",
    "region": "Quy Nhơn",
    "legacy_province": "Bình Định",
    "region_focus": "coastal_quy_nhon"
  },
  {
    "id": "khach-san-anh-khoa",
    "name": "Khách Sạn Anh Khoa",
    "address": "34 Trường Chinh, Phường Quy Nhơn",
    "latitude": 13.771908,
    "longitude": 109.22342,
    "phone": "0256 6250255",
    "type": "Khách sạn",
    "star_rating": 3,
    "price_range": "",
    "province": "Bình Định",
    "region": "Quy Nhơn",
    "legacy_province": "Bình Định",
    "region_focus": "coastal_quy_nhon"
  },
  {
    "id": "khach-san-delight",
    "name": "Khách sạn Delight",
    "address": "07 Lê Lợi, Phường Quy Nhơn",
    "latitude": 13.770746,
    "longitude": 109.23153,
    "phone": "(0256) 3636.060",
    "type": "Khách sạn",
    "star_rating": 3,
    "price_range": "",
    "province": "Bình Định",
    "region": "Quy Nhơn",
    "legacy_province": "Bình Định",
    "region_focus": "coastal_quy_nhon"
  },
  {
    "id": "khach-san-hoang-hung",
    "name": "Khách sạn Hoàng Hưng",
    "address": "51 Nguyễn Lạc, Phường Quy Nhơn",
    "latitude": 13.764377,
    "longitude": 109.224822,
    "phone": "02563814814",
    "type": "Khách sạn",
    "star_rating": 3,
    "price_range": "",
    "province": "Bình Định",
    "region": "Quy Nhơn",
    "legacy_province": "Bình Định",
    "region_focus": "coastal_quy_nhon"
  },
  {
    "id": "khach-san-hoai-thu",
    "name": "Khách sạn Hoài Thu",
    "address": "650 Hùng Vương, Phường Quy Nhơn Bắc",
    "latitude": 13.795453,
    "longitude": 109.183196,
    "phone": "0256 3848029",
    "type": "Khách sạn",
    "star_rating": 3,
    "price_range": "",
    "province": "Bình Định",
    "region": "Quy Nhơn",
    "legacy_province": "Bình Định",
    "region_focus": "coastal_quy_nhon"
  },
  {
    "id": "khach-san-galaxy",
    "name": "Khách Sạn Galaxy",
    "address": "27 Nguyễn Lạc, Phường Quy Nhơn",
    "latitude": 13.763198,
    "longitude": 109.223671,
    "phone": "02563813478",
    "type": "Khách sạn",
    "star_rating": 3,
    "price_range": "",
    "province": "Bình Định",
    "region": "Quy Nhơn",
    "legacy_province": "Bình Định",
    "region_focus": "coastal_quy_nhon"
  },
  {
    "id": "khach-san-hoang-thanh",
    "name": "Khách Sạn Hoàng Thanh",
    "address": "50 Ngô Mây, Phường Quy Nhơn Nam",
    "latitude": 13.762509,
    "longitude": 109.218289,
    "phone": "0256 247 8686",
    "type": "Khách sạn",
    "star_rating": 3,
    "price_range": "",
    "province": "Bình Định",
    "region": "Quy Nhơn",
    "legacy_province": "Bình Định",
    "region_focus": "coastal_quy_nhon"
  },
  {
    "id": "khach-san-hoang-lan",
    "name": "Khách sạn Hoàng Lan",
    "address": "58/4 Mai Xuân Thưởng, Phường Quy Nhơn",
    "latitude": 13.775894,
    "longitude": 109.226119,
    "phone": "(0256) 3636567",
    "type": "Khách sạn",
    "star_rating": 3,
    "price_range": "",
    "province": "Bình Định",
    "region": "Quy Nhơn",
    "legacy_province": "Bình Định",
    "region_focus": "coastal_quy_nhon"
  },
  {
    "id": "khach-san-hong-diep",
    "name": "Khách sạn Hồng Diệp",
    "address": "88 Xuân Diệu, Phường Quy Nhơn",
    "latitude": 13.768804,
    "longitude": 109.232033,
    "phone": "0256 389 22 29",
    "type": "Khách sạn",
    "star_rating": 3,
    "price_range": "",
    "province": "Bình Định",
    "region": "Quy Nhơn",
    "legacy_province": "Bình Định",
    "region_focus": "coastal_quy_nhon"
  },
  {
    "id": "khach-san-lazada",
    "name": "Khách sạn Lazada",
    "address": "98 Trần Anh Tông, Phường Quy Nhơn Nam",
    "latitude": 13.752854,
    "longitude": 109.212779,
    "phone": "0987762357",
    "type": "Khách sạn",
    "star_rating": 3,
    "price_range": "",
    "province": "Bình Định",
    "region": "Quy Nhơn",
    "legacy_province": "Bình Định",
    "region_focus": "coastal_quy_nhon"
  },
  {
    "id": "khach-san-kim-hoa-2",
    "name": "Khách sạn Kim Hoa 2",
    "address": "326 Trường Chinh, Phường An Nhơn Đông",
    "latitude": 13.898084,
    "longitude": 109.108639,
    "phone": "02563835358",
    "type": "Khách sạn",
    "star_rating": 3,
    "price_range": "",
    "province": "Bình Định",
    "region": "Bình Định Bắc",
    "legacy_province": "Bình Định",
    "region_focus": "binh_dinh_north"
  },
  {
    "id": "khach-san-hong-linh",
    "name": "Khách sạn Hồng Linh",
    "address": "242-246 Lạc Long Quân, Phường Quy Nhơn Bắc",
    "latitude": 13.790431,
    "longitude": 109.147725,
    "phone": "0256 3641 105",
    "type": "Khách sạn",
    "star_rating": 3,
    "price_range": "",
    "province": "Bình Định",
    "region": "Quy Nhơn",
    "legacy_province": "Bình Định",
    "region_focus": "coastal_quy_nhon"
  },
  {
    "id": "khach-san-lucky",
    "name": "Khách sạn Lucky",
    "address": "39 Võ Lai, Phường Quy Nhơn Nam",
    "latitude": 13.76457,
    "longitude": 109.218042,
    "phone": "0256 3525 155",
    "type": "Khách sạn",
    "star_rating": 3,
    "price_range": "",
    "province": "Bình Định",
    "region": "Quy Nhơn",
    "legacy_province": "Bình Định",
    "region_focus": "coastal_quy_nhon"
  },
  {
    "id": "khach-san-hong-hanh",
    "name": "Khách sạn Hồng Hạnh",
    "address": "03 Nguyễn Tư, Phường Quy Nhơn",
    "latitude": 13.765395,
    "longitude": 109.220655,
    "phone": "0256 3520 848",
    "type": "Khách sạn",
    "star_rating": 3,
    "price_range": "",
    "province": "Bình Định",
    "region": "Quy Nhơn",
    "legacy_province": "Bình Định",
    "region_focus": "coastal_quy_nhon"
  },
  {
    "id": "khach-san-hai-son",
    "name": "Khách sạn Hải Sơn",
    "address": "45 Nguyễn Tư, Phường Quy Nhơn",
    "latitude": 13.76698,
    "longitude": 109.220438,
    "phone": null,
    "type": "Khách sạn",
    "star_rating": 3,
    "price_range": "",
    "province": "Bình Định",
    "region": "Quy Nhơn",
    "legacy_province": "Bình Định",
    "region_focus": "coastal_quy_nhon"
  },
  {
    "id": "khach-san-minh-khue",
    "name": "Khách sạn Minh Khuê",
    "address": "57 Nguyễn Lạc, Phường Quy Nhơn",
    "latitude": 13.764,
    "longitude": 109.224765,
    "phone": "0962537216",
    "type": "Khách sạn",
    "star_rating": 3,
    "price_range": "",
    "province": "Bình Định",
    "region": "Quy Nhơn",
    "legacy_province": "Bình Định",
    "region_focus": "coastal_quy_nhon"
  },
  {
    "id": "khach-san-muong-thanh-gia-lai",
    "name": "Khách sạn Mường Thanh Gia Lai",
    "address": "537 Hùng Vương, Phường Pleiku",
    "latitude": 13.972426395980605,
    "longitude": 108.01448010703442,
    "phone": "02693718450",
    "type": "Khách sạn",
    "star_rating": 3,
    "price_range": "",
    "province": "Gia Lai",
    "region": "Pleiku",
    "legacy_province": "Gia Lai",
    "region_focus": "gia_lai_inland"
  },
  {
    "id": "khach-san-anya-quy-nhon",
    "name": "Khách sạn Anya Quy Nhơn",
    "address": "Số 03 Đường, Nguyễn Trung Tín, Phường Quy Nhơn Nam",
    "latitude": 13.754619,
    "longitude": 109.215104,
    "phone": "02562220779",
    "type": "Khách sạn",
    "star_rating": 3,
    "price_range": "",
    "province": "Bình Định",
    "region": "Quy Nhơn",
    "legacy_province": "Bình Định",
    "region_focus": "coastal_quy_nhon"
  },
  {
    "id": "khach-san-sai-gon-quy-nhon",
    "name": "Khách sạn Sài Gòn - Quy Nhơn",
    "address": "24 Nguyễn Huệ, Phường Quy Nhơn",
    "latitude": 13.770828,
    "longitude": 109.234628,
    "phone": "02563829922",
    "type": "Khách sạn",
    "star_rating": 3,
    "price_range": "",
    "province": "Bình Định",
    "region": "Quy Nhơn",
    "legacy_province": "Bình Định",
    "region_focus": "coastal_quy_nhon"
  },
  {
    "id": "khach-san-fleur-de-lys-quy-nhon",
    "name": "Khách sạn Fleur De Lys Quy Nhơn",
    "address": "16 Nguyễn Huệ, Phường Quy Nhơn",
    "latitude": 13.771363953694083,
    "longitude": 109.23699009781116,
    "phone": "02563666888",
    "type": "Khách sạn",
    "star_rating": 3,
    "price_range": "",
    "province": "Bình Định",
    "region": "Quy Nhơn",
    "legacy_province": "Bình Định",
    "region_focus": "coastal_quy_nhon"
  },
  {
    "id": "khach-san-muong-thanh-quy-nhon",
    "name": "Khách sạn Mường Thanh Quy Nhơn",
    "address": "02 Nguyễn Huệ, Phường Quy Nhơn",
    "latitude": 13.771926,
    "longitude": 109.238795,
    "phone": "02563892666",
    "type": "Khách sạn",
    "star_rating": 3,
    "price_range": "",
    "province": "Bình Định",
    "region": "Quy Nhơn",
    "legacy_province": "Bình Định",
    "region_focus": "coastal_quy_nhon"
  },
  {
    "id": "khach-san-viet-nam-taste",
    "name": "Khách sạn Viet Nam Taste",
    "address": "96 Xuân Diệu, Phường Quy Nhơn",
    "latitude": 13.771775,
    "longitude": 109.242011,
    "phone": "02563643333",
    "type": "Khách sạn",
    "star_rating": 3,
    "price_range": "",
    "province": "Bình Định",
    "region": "Quy Nhơn",
    "legacy_province": "Bình Định",
    "region_focus": "coastal_quy_nhon"
  },
  {
    "id": "khach-san-khanh-linh",
    "name": "Khách sạn Khánh Linh",
    "address": "232 Nguyễn Tất Thành, Phường Pleiku",
    "latitude": 13.9766344,
    "longitude": 108.0113956,
    "phone": "02693735555",
    "type": "Khách sạn",
    "star_rating": 3,
    "price_range": "",
    "province": "Gia Lai",
    "region": "Pleiku",
    "legacy_province": "Gia Lai",
    "region_focus": "gia_lai_inland"
  },
  {
    "id": "khach-san-pleiku-em",
    "name": "Khách sạn Pleiku & Em",
    "address": "86 Nguyễn Văn Trỗi, Phường Pleiku",
    "latitude": 13.977615710731257,
    "longitude": 108.00467133522035,
    "phone": "02693760777",
    "type": "Khách sạn",
    "star_rating": 3,
    "price_range": "",
    "province": "Gia Lai",
    "region": "Pleiku",
    "legacy_province": "Gia Lai",
    "region_focus": "gia_lai_inland"
  },
  {
    "id": "khach-san-pleiku",
    "name": "KHÁCH SẠN PLEIKU",
    "address": "03 Nguyễn Tất Thành, Phường Pleiku",
    "latitude": 13.985277,
    "longitude": 108.0049668,
    "phone": "02693827779",
    "type": "Khách sạn",
    "star_rating": 3,
    "price_range": "",
    "province": "Gia Lai",
    "region": "Pleiku",
    "legacy_province": "Gia Lai",
    "region_focus": "gia_lai_inland"
  },
  {
    "id": "khach-san-me-kong",
    "name": "Khách sạn Mê Kông",
    "address": "Tổ 5, Phường Pleiku",
    "latitude": 13.970125289231278,
    "longitude": 108.01842033863069,
    "phone": "02693888886",
    "type": "Khách sạn",
    "star_rating": 3,
    "price_range": "",
    "province": "Gia Lai",
    "region": "Pleiku",
    "legacy_province": "Gia Lai",
    "region_focus": "gia_lai_inland"
  },
  {
    "id": "paksong-farmstay-gia-lai",
    "name": "Paksong Farmstay Gia Lai",
    "address": "34/3 Nơ Trang Long, Tổ 5, Phường Pleiku",
    "latitude": 13.962561253633023,
    "longitude": 108.01898896694185,
    "phone": "0935725557",
    "type": "Homestay",
    "star_rating": 2,
    "price_range": "",
    "province": "Gia Lai",
    "region": "Pleiku",
    "legacy_province": "Gia Lai",
    "region_focus": "gia_lai_inland"
  },
  {
    "id": "khach-san-anh-thao",
    "name": "Khách sạn Anh Thảo",
    "address": "171 Cần Vương, Phường Quy Nhơn Nam",
    "latitude": 13.754736,
    "longitude": 109.211295,
    "phone": "02563746 368",
    "type": "Khách sạn",
    "star_rating": 3,
    "price_range": "",
    "province": "Bình Định",
    "region": "Quy Nhơn",
    "legacy_province": "Bình Định",
    "region_focus": "coastal_quy_nhon"
  },
  {
    "id": "khach-san-hoang-yen-canary",
    "name": "Khách sạn Hoàng Yến Canary",
    "address": "13 - 15 - 17 Nguyễn Huệ, Phường Quy Nhơn",
    "latitude": 13.772212,
    "longitude": 109.242221,
    "phone": "0256 3891277",
    "type": "Khách sạn",
    "star_rating": 3,
    "price_range": "",
    "province": "Bình Định",
    "region": "Quy Nhơn",
    "legacy_province": "Bình Định",
    "region_focus": "coastal_quy_nhon"
  },
  {
    "id": "khach-san-osaka",
    "name": "Khách sạn Osaka",
    "address": "98A Mai Xuân Thưởng, Phường Quy Nhơn",
    "latitude": 13.774973,
    "longitude": 109.224344,
    "phone": "0256 3827 875",
    "type": "Khách sạn",
    "star_rating": 3,
    "price_range": "",
    "province": "Bình Định",
    "region": "Quy Nhơn",
    "legacy_province": "Bình Định",
    "region_focus": "coastal_quy_nhon"
  },
  {
    "id": "khach-san-cao-nguyen",
    "name": "Khách sạn Cao Nguyên",
    "address": "16 Hoàng Văn Thụ, Phường Pleiku",
    "latitude": 13.9779426,
    "longitude": 107.99751,
    "phone": "02693829037",
    "type": "Nhà nghỉ du lịch",
    "star_rating": 2,
    "price_range": "",
    "province": "Bình Định",
    "region": "Quy Nhơn",
    "legacy_province": "Bình Định",
    "region_focus": "coastal_quy_nhon"
  },
  {
    "id": "khach-san-hoai-thuong",
    "name": "Khách sạn Hoài Thương",
    "address": "113 Trường Chinh, Phường Pleiku",
    "latitude": 13.9647691,
    "longitude": 108.0149027,
    "phone": "02693877888",
    "type": "Khách sạn",
    "star_rating": 3,
    "price_range": "",
    "province": "Gia Lai",
    "region": "Pleiku",
    "legacy_province": "Gia Lai",
    "region_focus": "gia_lai_inland"
  },
  {
    "id": "khach-san-le-centre",
    "name": "Khách sạn Le Centre",
    "address": "22B Lê Lai, Phường Pleiku",
    "latitude": 13.9801008,
    "longitude": 107.9992083,
    "phone": "02693824725",
    "type": "Khách Sạn",
    "star_rating": 3,
    "price_range": "",
    "province": "Gia Lai",
    "region": "Pleiku",
    "legacy_province": "Gia Lai",
    "region_focus": "gia_lai_inland"
  },
  {
    "id": "khach-san-thien-duong-xanh",
    "name": "Khách sạn Thiên Đường Xanh",
    "address": "163 đường Thống Nhất, Tổ 4, Phường Diên Hồng",
    "latitude": 13.9687881,
    "longitude": 108.0006484,
    "phone": "02693716450",
    "type": "Khách Sạn",
    "star_rating": 3,
    "price_range": "",
    "province": "Gia Lai",
    "region": "Pleiku",
    "legacy_province": "Gia Lai",
    "region_focus": "gia_lai_inland"
  },
  {
    "id": "khach-san-queen",
    "name": "Khách sạn Queen",
    "address": "63 Nguyễn Tất Thành, Phường Pleiku",
    "latitude": 13.9824338,
    "longitude": 108.009405,
    "phone": "02693829411",
    "type": "Khách sạn",
    "star_rating": 3,
    "price_range": "",
    "province": "Gia Lai",
    "region": "Pleiku",
    "legacy_province": "Gia Lai",
    "region_focus": "gia_lai_inland"
  },
  {
    "id": "khach-san-an-sinh",
    "name": "Khách sạn An Sinh",
    "address": "110 Phù Đổng, Phường Pleiku",
    "latitude": 14.0197361,
    "longitude": 108.0136885,
    "phone": "02692205678",
    "type": "Khách sạn",
    "star_rating": 3,
    "price_range": "",
    "province": "Gia Lai",
    "region": "Pleiku",
    "legacy_province": "Gia Lai",
    "region_focus": "gia_lai_inland"
  },
  {
    "id": "la-mia-lakeview-hotel",
    "name": "LA MIA LAKEVIEW HOTEL",
    "address": "LÔ 25A-3&4 Nguyễn Lương Bằng, Phường Pleiku",
    "latitude": 13.9785387,
    "longitude": 108.0094116,
    "phone": "02693882299",
    "type": "Khách sạn",
    "star_rating": 3,
    "price_range": "",
    "province": "Gia Lai",
    "region": "Pleiku",
    "legacy_province": "Gia Lai",
    "region_focus": "gia_lai_inland"
  },
  {
    "id": "khach-san-kings",
    "name": "Khách sạn Kings",
    "address": "640 Phạm Văn Đồng, Phường Thống Nhất",
    "latitude": 14.0241252,
    "longitude": 107.9882498,
    "phone": "02693757879",
    "type": "Khách Sạn",
    "star_rating": 3,
    "price_range": "",
    "province": "Gia Lai",
    "region": "Pleiku",
    "legacy_province": "Gia Lai",
    "region_focus": "gia_lai_inland"
  },
  {
    "id": "khach-san-hoang-my",
    "name": "Khách sạn Hoàng My",
    "address": "91 Nguyễn Tất Thành, Phường Pleiku",
    "latitude": 13.9800467,
    "longitude": 108.0088856,
    "phone": "0337106627",
    "type": "Khách sạn",
    "star_rating": 3,
    "price_range": "",
    "province": "Gia Lai",
    "region": "Pleiku",
    "legacy_province": "Gia Lai",
    "region_focus": "gia_lai_inland"
  },
  {
    "id": "khach-san-bao-cuong",
    "name": "Khách sạn Bảo Cường",
    "address": "154 Nguyễn Huệ, Phường Quy Nhơn",
    "latitude": 13.764005,
    "longitude": 109.223157,
    "phone": "(0256) 3811698",
    "type": "Khách sạn",
    "star_rating": 3,
    "price_range": "",
    "province": "Bình Định",
    "region": "Quy Nhơn",
    "legacy_province": "Bình Định",
    "region_focus": "coastal_quy_nhon"
  },
  {
    "id": "khach-san-green",
    "name": "Khách sạn Green",
    "address": "08 Chương Dương, Phường Quy Nhơn Nam",
    "latitude": 13.752709,
    "longitude": 109.214256,
    "phone": "0256 3 535 349",
    "type": "Khách sạn",
    "star_rating": 3,
    "price_range": "",
    "province": "Bình Định",
    "region": "Quy Nhơn",
    "legacy_province": "Bình Định",
    "region_focus": "coastal_quy_nhon"
  },
  {
    "id": "khach-san-blue-sea",
    "name": "Khách sạn Blue Sea",
    "address": "2B Trần Độc, Phường Quy Nhơn",
    "latitude": 13.763457,
    "longitude": 109.223355,
    "phone": "0256 3826 979",
    "type": "Khách sạn",
    "star_rating": 3,
    "price_range": "",
    "province": "Bình Định",
    "region": "Quy Nhơn",
    "legacy_province": "Bình Định",
    "region_focus": "coastal_quy_nhon"
  },
  {
    "id": "khach-san-green-park",
    "name": "Khách sạn Green Park",
    "address": "144 Đô Đốc Bảo, Phường Quy Nhơn",
    "latitude": 13.76836,
    "longitude": 109.22283,
    "phone": "0256 3818 369",
    "type": "Khách sạn",
    "star_rating": 3,
    "price_range": "",
    "province": "Bình Định",
    "region": "Quy Nhơn",
    "legacy_province": "Bình Định",
    "region_focus": "coastal_quy_nhon"
  },
  {
    "id": "khach-san-salah",
    "name": "Khách sạn SALAH",
    "address": "09 Lê Lai, Phường Quy Nhơn Nam",
    "latitude": 13.762717,
    "longitude": 109.219972,
    "phone": "0934817677",
    "type": "Khách sạn",
    "star_rating": 3,
    "price_range": "",
    "province": "Bình Định",
    "region": "Quy Nhơn",
    "legacy_province": "Bình Định",
    "region_focus": "coastal_quy_nhon"
  },
  {
    "id": "khach-san-tan-nhat-suong",
    "name": "Khách sạn Tân Nhật Sương",
    "address": "19 Võ Xán, Xã Tây Sơn",
    "latitude": 13.909033,
    "longitude": 108.917717,
    "phone": "02563.780.799",
    "type": "Khách sạn",
    "star_rating": 3,
    "price_range": "",
    "province": "Bình Định",
    "region": "Bình Định Nội Địa",
    "legacy_province": "Bình Định",
    "region_focus": "binh_dinh_inland"
  },
  {
    "id": "khach-san-seaside",
    "name": "Khách sạn SeaSide",
    "address": "39A Nguyễn Lạc, Phường Quy Nhơn",
    "latitude": 13.764391,
    "longitude": 109.224663,
    "phone": "0256 3812818",
    "type": "Khách sạn",
    "star_rating": 3,
    "price_range": "",
    "province": "Bình Định",
    "region": "Quy Nhơn",
    "legacy_province": "Bình Định",
    "region_focus": "coastal_quy_nhon"
  },
  {
    "id": "khach-san-new-light",
    "name": "Khách sạn New Light",
    "address": "31-33 Lâm Văn Thạnh, Phường Quy Nhơn Nam",
    "latitude": 13.75683,
    "longitude": 109.214851,
    "phone": "0256 35 35 808",
    "type": "Khách sạn",
    "star_rating": 3,
    "price_range": "",
    "province": "Bình Định",
    "region": "Quy Nhơn",
    "legacy_province": "Bình Định",
    "region_focus": "coastal_quy_nhon"
  },
  {
    "id": "khach-san-sao-bien",
    "name": "Khách sạn Sao Biển",
    "address": "98 Xuân Diệu, Phường Quy Nhơn",
    "latitude": 13.771813,
    "longitude": 109.242065,
    "phone": "0256 650 6688",
    "type": "Khách sạn",
    "star_rating": 3,
    "price_range": "",
    "province": "Bình Định",
    "region": "Quy Nhơn",
    "legacy_province": "Bình Định",
    "region_focus": "coastal_quy_nhon"
  },
  {
    "id": "khach-san-minh-nhat",
    "name": "Khách sạn Minh Nhật",
    "address": "386 Xuân Diệu, Phường Quy Nhơn",
    "latitude": 13.763529,
    "longitude": 109.224183,
    "phone": "0256 3818 811",
    "type": "Khách sạn",
    "star_rating": 3,
    "price_range": "",
    "province": "Bình Định",
    "region": "Quy Nhơn",
    "legacy_province": "Bình Định",
    "region_focus": "coastal_quy_nhon"
  },
  {
    "id": "khach-san-le-loi",
    "name": "Khách sạn Lê Lợi",
    "address": "09 Lê Lợi, Phường Quy Nhơn",
    "latitude": 13.770939,
    "longitude": 109.231441,
    "phone": "0256 3822 292",
    "type": "Khách sạn",
    "star_rating": 3,
    "price_range": "",
    "province": "Bình Định",
    "region": "Quy Nhơn",
    "legacy_province": "Bình Định",
    "region_focus": "coastal_quy_nhon"
  },
  {
    "id": "khach-san-hong-hung",
    "name": "Khách sạn Hồng Hưng",
    "address": "04-5 Nguyễn Tư, Phường Quy Nhơn",
    "latitude": 13.765344,
    "longitude": 109.220517,
    "phone": "0256 3525 188",
    "type": "Khách sạn",
    "star_rating": 3,
    "price_range": "",
    "province": "Bình Định",
    "region": "Quy Nhơn",
    "legacy_province": "Bình Định",
    "region_focus": "coastal_quy_nhon"
  },
  {
    "id": "khach-san-khang-khang-2",
    "name": "Khách sạn Khang Khang 2",
    "address": "37-39 Ngô Gia Tự, Phường Quy Nhơn Nam",
    "latitude": 13.754181,
    "longitude": 109.212864,
    "phone": "0256 3747 727",
    "type": "Khách sạn",
    "star_rating": 3,
    "price_range": "",
    "province": "Bình Định",
    "region": "Quy Nhơn",
    "legacy_province": "Bình Định",
    "region_focus": "coastal_quy_nhon"
  },
  {
    "id": "khach-san-my-tien",
    "name": "Khách sạn Mỹ Tiến",
    "address": "25 Nguyễn Thị Định, Phường Quy Nhơn Nam",
    "latitude": 13.753621,
    "longitude": 109.211952,
    "phone": "0256 2246 766",
    "type": "Khách sạn",
    "star_rating": 3,
    "price_range": "",
    "province": "Bình Định",
    "region": "Quy Nhơn",
    "legacy_province": "Bình Định",
    "region_focus": "coastal_quy_nhon"
  },
  {
    "id": "khach-san-sunshine",
    "name": "Khách sạn Sunshine",
    "address": "116 Đô Đốc Bảo, Phường Quy Nhơn",
    "latitude": 13.767033,
    "longitude": 109.222813,
    "phone": "0978678827",
    "type": "Khách sạn",
    "star_rating": 3,
    "price_range": "",
    "province": "Bình Định",
    "region": "Quy Nhơn",
    "legacy_province": "Bình Định",
    "region_focus": "coastal_quy_nhon"
  },
  {
    "id": "khach-san-hai-yen",
    "name": "Khách sạn Hải Yến",
    "address": "05 Nơ Trang Long, Phường Quy Nhơn",
    "latitude": 13.9635019,
    "longitude": 108.018529,
    "phone": "02683823859",
    "type": "Khách sạn",
    "star_rating": 3,
    "price_range": "",
    "province": "Bình Định",
    "region": "Quy Nhơn",
    "legacy_province": "Bình Định",
    "region_focus": "coastal_quy_nhon"
  },
  {
    "id": "khach-san-for-get-me-not",
    "name": "khách sạn For get me not",
    "address": "71 Trường Chinh, Phường Pleiku",
    "latitude": 13.9801905,
    "longitude": 107.993693,
    "phone": "",
    "type": "Khách sạn",
    "star_rating": 3,
    "price_range": "",
    "province": "Gia Lai",
    "region": "Pleiku",
    "legacy_province": "Gia Lai",
    "region_focus": "gia_lai_inland"
  },
  {
    "id": "nha-nghi-thanh-trang",
    "name": "Nhà nghỉ Thanh Trang",
    "address": "856 Trường Chinh, Phường Pleiku",
    "latitude": 13.9737099,
    "longitude": 108.0150596,
    "phone": "",
    "type": "Nhà nghỉ du lịch",
    "star_rating": 2,
    "price_range": "",
    "province": "Gia Lai",
    "region": "Pleiku",
    "legacy_province": "Gia Lai",
    "region_focus": "gia_lai_inland"
  },
  {
    "id": "khach-san-phuong-trinh",
    "name": "Khách sạn Phương Trinh",
    "address": "Lô A11 KDC SH Land, Đường Lý Nam Đế, Phường Hội Phú",
    "latitude": 13.95851714353455,
    "longitude": 108.02061438560487,
    "phone": "0968892546",
    "type": "Khách sạn",
    "star_rating": 3,
    "price_range": "",
    "province": "Gia Lai",
    "region": "Pleiku",
    "legacy_province": "Gia Lai",
    "region_focus": "gia_lai_inland"
  },
  {
    "id": "khach-san-hung-vuong-hoi-thuong",
    "name": "Khách sạn Hùng Vương (Hội Thương)",
    "address": "02 Lê Lợi, Phường Pleiku",
    "latitude": 13.197214299999999,
    "longitude": 108.68613309999999,
    "phone": "02693553399",
    "type": "Khách Sạn",
    "star_rating": 3,
    "price_range": "",
    "province": "Bình Định",
    "region": "Quy Nhơn",
    "legacy_province": "Bình Định",
    "region_focus": "coastal_quy_nhon"
  },
  {
    "id": "khach-san-au-viet",
    "name": "Khách sạn Âu Việt",
    "address": "45 Tạ Quang Bửu, Phường Pleiku",
    "latitude": 13.9830783,
    "longitude": 108.007388,
    "phone": "02693876699",
    "type": "Khách sạn",
    "star_rating": 3,
    "price_range": "",
    "province": "Gia Lai",
    "region": "Pleiku",
    "legacy_province": "Gia Lai",
    "region_focus": "gia_lai_inland"
  },
  {
    "id": "nha-khach-tinh-uy-gia-lai",
    "name": "Nhà khách Tỉnh ủy Gia Lai",
    "address": "20 Lê Hồng Phong, Phường Diên Hồng",
    "latitude": 13.976315711180211,
    "longitude": 107.99607476406547,
    "phone": "02693830288",
    "type": "Nhà nghỉ du lịch",
    "star_rating": 2,
    "price_range": "",
    "province": "Gia Lai",
    "region": "Pleiku",
    "legacy_province": "Gia Lai",
    "region_focus": "gia_lai_inland"
  },
  {
    "id": "khach-san-elegant",
    "name": "Khách sạn Elegant",
    "address": "64 Nguyễn Tất Thành, Phường Pleiku",
    "latitude": 13.9818233,
    "longitude": 108.0070243,
    "phone": "02693717799",
    "type": "Khách sạn",
    "star_rating": 3,
    "price_range": "",
    "province": "Gia Lai",
    "region": "Pleiku",
    "legacy_province": "Gia Lai",
    "region_focus": "gia_lai_inland"
  },
  {
    "id": "khach-san-dang-xua-pleiku",
    "name": "Khách sạn Dáng Xưa - Pleiku",
    "address": "84 Hùng Vương, Phường Diên Hồng",
    "latitude": 13.9767941,
    "longitude": 108.0022271,
    "phone": "02693824515",
    "type": "Khách sạn",
    "star_rating": 3,
    "price_range": "",
    "province": "Gia Lai",
    "region": "Pleiku",
    "legacy_province": "Gia Lai",
    "region_focus": "gia_lai_inland"
  },
  {
    "id": "khach-san-khanh-binh",
    "name": "Khách sạn Khánh Bình",
    "address": "27 Nguyễn Du, Phường Quy Nhơn",
    "latitude": 13.9797667,
    "longitude": 108.0055049,
    "phone": "02693873629",
    "type": "Khách Sạn",
    "star_rating": 3,
    "price_range": "",
    "province": "Bình Định",
    "region": "Quy Nhơn",
    "legacy_province": "Bình Định",
    "region_focus": "coastal_quy_nhon"
  },
  {
    "id": "khach-san-thanh-dat",
    "name": "Khách sạn Thành Đạt",
    "address": "Tổ dân phố 1, Xã Đức Cơ",
    "latitude": 9.779349,
    "longitude": 105.6189045,
    "phone": "0989839798",
    "type": "Nhà nghỉ du lịch",
    "star_rating": 2,
    "price_range": "",
    "province": "Gia Lai",
    "region": "Pleiku",
    "legacy_province": "Gia Lai",
    "region_focus": "gia_lai_inland"
  },
  {
    "id": "khach-san-huu-phuoc",
    "name": "Khách sạn Hữu Phước",
    "address": "34 Nguyễn Như Đỗ, Phường Quy Nhơn Nam",
    "latitude": 13.753264,
    "longitude": 109.215241,
    "phone": "0888.375.416",
    "type": "Khách sạn",
    "star_rating": 3,
    "price_range": "",
    "province": "Bình Định",
    "region": "Quy Nhơn",
    "legacy_province": "Bình Định",
    "region_focus": "coastal_quy_nhon"
  },
  {
    "id": "khach-san-thien-cac-2",
    "name": "Khách sạn Thiên Các 2",
    "address": "44 Nguyễn Tư, Phường Quy Nhơn",
    "latitude": 13.766997,
    "longitude": 109.220573,
    "phone": "02563521818",
    "type": "Khách sạn",
    "star_rating": 3,
    "price_range": "",
    "province": "Bình Định",
    "region": "Quy Nhơn",
    "legacy_province": "Bình Định",
    "region_focus": "coastal_quy_nhon"
  },
  {
    "id": "khach-san-au-lac",
    "name": "Khách sạn Âu Lạc",
    "address": "31 Nguyễn Lạc, Phường Quy Nhơn",
    "latitude": 13.763747,
    "longitude": 109.224077,
    "phone": "0256 6555 556",
    "type": "Khách sạn",
    "star_rating": 3,
    "price_range": "",
    "province": "Bình Định",
    "region": "Quy Nhơn",
    "legacy_province": "Bình Định",
    "region_focus": "coastal_quy_nhon"
  },
  {
    "id": "khach-san-tuyet-nhung",
    "name": "Khách sạn Tuyết Nhung",
    "address": "An Dưỡng 2, Phường Hoài Nhơn Nam",
    "latitude": 14.475657,
    "longitude": 109.003703,
    "phone": "0989257985",
    "type": "Khách sạn",
    "star_rating": 3,
    "price_range": "",
    "province": "Bình Định",
    "region": "Bình Định Bắc",
    "legacy_province": "Bình Định",
    "region_focus": "binh_dinh_north"
  },
  {
    "id": "khach-san-vien-duong",
    "name": "Khách sạn Viễn Dương",
    "address": "34 Chương Dương, Phường Quy Nhơn Nam",
    "latitude": 13.752861,
    "longitude": 109.213488,
    "phone": null,
    "type": "Khách sạn",
    "star_rating": 3,
    "price_range": "",
    "province": "Bình Định",
    "region": "Quy Nhơn",
    "legacy_province": "Bình Định",
    "region_focus": "coastal_quy_nhon"
  },
  {
    "id": "khach-san-nguyen-anh",
    "name": "Khách sạn Nguyên Anh",
    "address": "98 Nguyễn Tất Thành, Phường Pleiku",
    "latitude": 13.9809175,
    "longitude": 108.0104512,
    "phone": "02693717977",
    "type": "Khách sạn",
    "star_rating": 3,
    "price_range": "",
    "province": "Gia Lai",
    "region": "Pleiku",
    "legacy_province": "Gia Lai",
    "region_focus": "gia_lai_inland"
  },
  {
    "id": "khach-san-vien-dong",
    "name": "Khách sạn Viễn Đông",
    "address": "68 Tăng Bạt Hổ, Phường Diên Hồng",
    "latitude": 13.9803472,
    "longitude": 107.9905762,
    "phone": "02693888369",
    "type": "Khách Sạn",
    "star_rating": 3,
    "price_range": "",
    "province": "Gia Lai",
    "region": "Pleiku",
    "legacy_province": "Gia Lai",
    "region_focus": "gia_lai_inland"
  },
  {
    "id": "khach-san-khai-yen",
    "name": "Khách sạn Khải Yến",
    "address": "59 Tạ Quang Bửu, Phường Pleiku",
    "latitude": 13.9828,
    "longitude": 108.01027,
    "phone": "02693822777",
    "type": "Khách sạn",
    "star_rating": 3,
    "price_range": "",
    "province": "Gia Lai",
    "region": "Pleiku",
    "legacy_province": "Gia Lai",
    "region_focus": "gia_lai_inland"
  },
  {
    "id": "khach-san-minh-manh-1",
    "name": "Khách sạn Minh Mạnh 1",
    "address": "90A Lý Nam Đế, Phường Hội Phú",
    "latitude": 13.963694017973872,
    "longitude": 108.02038908004762,
    "phone": "02693871777",
    "type": "Khách sạn",
    "star_rating": 3,
    "price_range": "",
    "province": "Gia Lai",
    "region": "Pleiku",
    "legacy_province": "Gia Lai",
    "region_focus": "gia_lai_inland"
  },
  {
    "id": "khach-san-manh-le-gia",
    "name": "Khách sạn Mạnh Lê Gia",
    "address": "125 Wừu, Phường Diên Hồng",
    "latitude": 13.9734347,
    "longitude": 107.9986044,
    "phone": "02693873188",
    "type": "Khách sạn",
    "star_rating": 3,
    "price_range": "",
    "province": "Gia Lai",
    "region": "Pleiku",
    "legacy_province": "Gia Lai",
    "region_focus": "gia_lai_inland"
  },
  {
    "id": "khach-san-minh-manh-2",
    "name": "Khách sạn Minh Mạnh 2",
    "address": "145 Nguyễn Chí Thanh, Phường Hội Phú",
    "latitude": 13.952679845312218,
    "longitude": 108.02096843719484,
    "phone": "02693826888",
    "type": "Khách sạn",
    "star_rating": 3,
    "price_range": "",
    "province": "Gia Lai",
    "region": "Pleiku",
    "legacy_province": "Gia Lai",
    "region_focus": "gia_lai_inland"
  },
  {
    "id": "khach-san-hoang-oanh",
    "name": "Khách sạn Hoàng Oanh",
    "address": "02 Trần Độc, Phường Quy Nhơn",
    "latitude": 13.765453,
    "longitude": 109.225424,
    "phone": "02563818579",
    "type": "Khách sạn",
    "star_rating": 3,
    "price_range": "",
    "province": "Bình Định",
    "region": "Quy Nhơn",
    "legacy_province": "Bình Định",
    "region_focus": "coastal_quy_nhon"
  },
  {
    "id": "khach-san-hung-gia-quy-nhon",
    "name": "Khách Sạn Hưng Gia Quy Nhơn",
    "address": "31 Dã Tượng, Phường Quy Nhơn Nam",
    "latitude": 13.752767,
    "longitude": 109.211407,
    "phone": "02563535118",
    "type": "Khách sạn",
    "star_rating": 3,
    "price_range": "",
    "province": "Bình Định",
    "region": "Quy Nhơn",
    "legacy_province": "Bình Định",
    "region_focus": "coastal_quy_nhon"
  },
  {
    "id": "khach-san-ham-ho",
    "name": "Khách sạn Hầm Hô",
    "address": "Khu du lịch Hầm Hô, Xã Bình Phú",
    "latitude": 13.873316,
    "longitude": 108.862791,
    "phone": "02563880860",
    "type": "Khách sạn",
    "star_rating": 3,
    "price_range": "",
    "province": "Gia Lai",
    "region": "Pleiku",
    "legacy_province": "Gia Lai",
    "region_focus": "gia_lai_inland"
  },
  {
    "id": "khach-san-huong-giang",
    "name": "Khách sạn Hương Giang",
    "address": "56 Lê Hồng Phong, Phường Diên Hồng",
    "latitude": 13.769997,
    "longitude": 109.229566,
    "phone": "0256 3821 747",
    "type": "Khách sạn",
    "star_rating": 3,
    "price_range": "",
    "province": "Gia Lai",
    "region": "Pleiku",
    "legacy_province": "Gia Lai",
    "region_focus": "gia_lai_inland"
  },
  {
    "id": "khach-san-anh-nguyen-2",
    "name": "Khách sạn Anh Nguyên 2",
    "address": "271/9 Quang Trung, Phường Bồng Sơn",
    "latitude": 14.436066,
    "longitude": 109.017729,
    "phone": null,
    "type": "Khách sạn",
    "star_rating": 3,
    "price_range": "",
    "province": "Bình Định",
    "region": "Bình Định Bắc",
    "legacy_province": "Bình Định",
    "region_focus": "binh_dinh_north"
  },
  {
    "id": "huong-pleiku",
    "name": "Hương Pleiku",
    "address": "125 Wừu, Phường Diên Hồng",
    "latitude": 13.9778485,
    "longitude": 107.9987488,
    "phone": "0348887771",
    "type": "Khách sạn",
    "star_rating": 3,
    "price_range": "",
    "province": "Gia Lai",
    "region": "Pleiku",
    "legacy_province": "Gia Lai",
    "region_focus": "gia_lai_inland"
  },
  {
    "id": "nha-nghi-pho-nui",
    "name": "Nhà nghỉ Phố Núi",
    "address": "79 Nay Der, Xã Phú Túc",
    "latitude": 13.2046246,
    "longitude": 108.7019129,
    "phone": "0905280428",
    "type": "Nhà nghỉ",
    "star_rating": 1,
    "price_range": "",
    "province": "Gia Lai",
    "region": "Pleiku",
    "legacy_province": "Gia Lai",
    "region_focus": "gia_lai_inland"
  },
  {
    "id": "nha-nghi-anh-toan",
    "name": "Nhà nghỉ Anh Toàn",
    "address": "Tổ dân phố 1, Xã Kông Chro",
    "latitude": 13.7836901804774,
    "longitude": 108.52707811486665,
    "phone": "0978345456",
    "type": "Khách sạn",
    "star_rating": 3,
    "price_range": "",
    "province": "Gia Lai",
    "region": "Pleiku",
    "legacy_province": "Gia Lai",
    "region_focus": "gia_lai_inland"
  },
  {
    "id": "nha-nghi-777",
    "name": "Nhà nghỉ 777",
    "address": "405 Hoàng Hoa Thám, Phường An Khê",
    "latitude": 13.9719812,
    "longitude": 108.6750094,
    "phone": "0905180965",
    "type": "Nhà nghỉ",
    "star_rating": 1,
    "price_range": "",
    "province": "Bình Định",
    "region": "Bình Định Nội Địa",
    "legacy_province": "Bình Định",
    "region_focus": "binh_dinh_inland"
  },
  {
    "id": "nha-nghi-vinh-quang",
    "name": "Nhà nghỉ Vinh Quang",
    "address": "Plei Tăng B, Xã Phú Thiện",
    "latitude": 13.5380307,
    "longitude": 108.2891149,
    "phone": null,
    "type": "Nhà nghỉ du lịch",
    "star_rating": 2,
    "price_range": "",
    "province": "Gia Lai",
    "region": "Pleiku",
    "legacy_province": "Gia Lai",
    "region_focus": "gia_lai_inland"
  },
  {
    "id": "nha-nghi-quang-trung",
    "name": "Nhà nghỉ Quang Trung",
    "address": "Tổ dân phố 12, Phường An Khê",
    "latitude": 13.529389212157055,
    "longitude": 108.31292152404785,
    "phone": "0988809596",
    "type": "Nhà nghỉ",
    "star_rating": 1,
    "price_range": "",
    "province": "Bình Định",
    "region": "Bình Định Nội Địa",
    "legacy_province": "Bình Định",
    "region_focus": "binh_dinh_inland"
  },
  {
    "id": "nha-nghi-thien-duong-i",
    "name": "Nhà nghỉ Thiên Đường I",
    "address": "177/2 Lê Đại Hành, Phường Thống Nhất",
    "latitude": 14.0114498,
    "longitude": 107.986521,
    "phone": "",
    "type": "Nhà nghỉ",
    "star_rating": 1,
    "price_range": "",
    "province": "Gia Lai",
    "region": "Pleiku",
    "legacy_province": "Gia Lai",
    "region_focus": "gia_lai_inland"
  },
  {
    "id": "nha-nghi-lan-anh-an-khe",
    "name": "Nhà nghỉ Lan Anh (An Khê)",
    "address": "Tổ dân phố 4, Phường An Khê",
    "latitude": 13.506160000000001,
    "longitude": 108.32629239570144,
    "phone": null,
    "type": "Nhà nghỉ du lịch",
    "star_rating": 2,
    "price_range": "",
    "province": "Bình Định",
    "region": "Bình Định Nội Địa",
    "legacy_province": "Bình Định",
    "region_focus": "binh_dinh_inland"
  },
  {
    "id": "nha-nghi-thuy-duong",
    "name": "Nhà nghỉ Thùy Dương",
    "address": "88 Trường Chinh, Phường Pleiku",
    "latitude": 13.9699024,
    "longitude": 108.0132639,
    "phone": "0977831729",
    "type": "Nhà nghỉ",
    "star_rating": 1,
    "price_range": "",
    "province": "Gia Lai",
    "region": "Pleiku",
    "legacy_province": "Gia Lai",
    "region_focus": "gia_lai_inland"
  },
  {
    "id": "nha-khach-ubnd-tinh-gia-lai",
    "name": "Nhà khách UBND tỉnh Gia Lai",
    "address": "57 Quang Trung, Phường Pleiku",
    "latitude": 13.9789468,
    "longitude": 108.0036622,
    "phone": "02693822574",
    "type": "Nhà Khách",
    "star_rating": 2,
    "price_range": "",
    "province": "Gia Lai",
    "region": "Pleiku",
    "legacy_province": "Gia Lai",
    "region_focus": "gia_lai_inland"
  },
  {
    "id": "xom-organic-farm-stay-full-house",
    "name": "XOM Organic Farm Stay – Full House",
    "address": "Thôn 5, Phường Pleiku",
    "latitude": 13.9877282,
    "longitude": 108.04356,
    "phone": "0329934342",
    "type": "Khách sạn",
    "star_rating": 3,
    "price_range": "",
    "province": "Gia Lai",
    "region": "Pleiku",
    "legacy_province": "Gia Lai",
    "region_focus": "gia_lai_inland"
  },
  {
    "id": "phuot-pleiku-homestay",
    "name": "Phuot Pleiku Homestay",
    "address": "71 Hùng Vương, Phường Diên Hồng",
    "latitude": 13.9764992,
    "longitude": 107.9983307,
    "phone": "0789739105",
    "type": "Homestay",
    "star_rating": 2,
    "price_range": "",
    "province": "Gia Lai",
    "region": "Pleiku",
    "legacy_province": "Gia Lai",
    "region_focus": "gia_lai_inland"
  },
  {
    "id": "the-stay-villa-pleiku",
    "name": "The Stay Villa Pleiku",
    "address": "206/55 Phù Đổng, Phường Pleiku",
    "latitude": 13.9846836,
    "longitude": 108.0148172,
    "phone": "0975460015",
    "type": "Villa",
    "star_rating": 4,
    "price_range": "",
    "province": "Gia Lai",
    "region": "Pleiku",
    "legacy_province": "Gia Lai",
    "region_focus": "gia_lai_inland"
  },
  {
    "id": "nha-nghi-tien-dat",
    "name": "Nhà nghỉ Tiến Đạt",
    "address": "69 Trường Chinh, Tổ 10, Phường Pleiku",
    "latitude": 13.96712,
    "longitude": 108.0170604,
    "phone": "02693747078",
    "type": "Nhà nghỉ",
    "star_rating": 1,
    "price_range": "",
    "province": "Gia Lai",
    "region": "Pleiku",
    "legacy_province": "Gia Lai",
    "region_focus": "gia_lai_inland"
  },
  {
    "id": "lake-view-homestay",
    "name": "Lake View Homestay",
    "address": "46B Đống Đa, Phường Diên Hồng",
    "latitude": 13.9694137,
    "longitude": 107.9961634,
    "phone": "0935111679",
    "type": "Homestay",
    "star_rating": 2,
    "price_range": "",
    "province": "Gia Lai",
    "region": "Pleiku",
    "legacy_province": "Gia Lai",
    "region_focus": "gia_lai_inland"
  },
  {
    "id": "khach-san-elisa",
    "name": "Khách sạn Elisa",
    "address": "7/1 Hai Bà Trưng, Phường Diên Hồng",
    "latitude": 13.980817,
    "longitude": 108.0019791,
    "phone": "0961122242",
    "type": "Khách Sạn",
    "star_rating": 3,
    "price_range": "",
    "province": "Gia Lai",
    "region": "Pleiku",
    "legacy_province": "Gia Lai",
    "region_focus": "gia_lai_inland"
  },
  {
    "id": "nha-nghi-binh-minh",
    "name": "Nhà Nghỉ Bình Minh",
    "address": "Hẻm 28 Trần Văn Bình, Phường Pleiku",
    "latitude": 13.9869694,
    "longitude": 108.0290605,
    "phone": "0944645071",
    "type": "Nhà nghỉ du lịch",
    "star_rating": 2,
    "price_range": "",
    "province": "Gia Lai",
    "region": "Pleiku",
    "legacy_province": "Gia Lai",
    "region_focus": "gia_lai_inland"
  },
  {
    "id": "nha-nghi-osaka",
    "name": "Nhà nghỉ Osaka",
    "address": "19 Nguyễn Thị Định, Phường Quy Nhơn Nam",
    "latitude": 14.0175338,
    "longitude": 107.9937776,
    "phone": "",
    "type": "Nhà nghỉ",
    "star_rating": 1,
    "price_range": "",
    "province": "Bình Định",
    "region": "Quy Nhơn",
    "legacy_province": "Bình Định",
    "region_focus": "coastal_quy_nhon"
  },
  {
    "id": "khach-san-anh-nguyen",
    "name": "Khách sạn Anh Nguyên",
    "address": "34 Phạm Hồng Thái, Phường Diên Hồng",
    "latitude": 13.9802984,
    "longitude": 107.9979716,
    "phone": "0914433675",
    "type": "Khách sạn",
    "star_rating": 3,
    "price_range": "",
    "province": "Gia Lai",
    "region": "Pleiku",
    "legacy_province": "Gia Lai",
    "region_focus": "gia_lai_inland"
  },
  {
    "id": "khach-san-phuc-khanh",
    "name": "Khách sạn Phúc Khánh",
    "address": "04 Hoàng Văn Thụ, Phường Ayun Pa",
    "latitude": 13.9779426,
    "longitude": 107.99751,
    "phone": "0964152679",
    "type": "Khách Sạn",
    "star_rating": 3,
    "price_range": "",
    "province": "Bình Định",
    "region": "Quy Nhơn",
    "legacy_province": "Bình Định",
    "region_focus": "coastal_quy_nhon"
  },
  {
    "id": "nha-nghi-thanh-nhan",
    "name": "Nhà nghỉ Thành Nhân",
    "address": "06 Trần Phú, Tổ 3, Phường Ayun Pa",
    "latitude": 13.9784453,
    "longitude": 108.0008822,
    "phone": "0975468019",
    "type": "Nhà nghỉ",
    "star_rating": 1,
    "price_range": "",
    "province": "Bình Định",
    "region": "Quy Nhơn",
    "legacy_province": "Bình Định",
    "region_focus": "coastal_quy_nhon"
  },
  {
    "id": "nha-nghi-trung-huong",
    "name": "Nhà nghỉ Trung Hương",
    "address": "339 Trần Hưng Đạo, Phường Ayun Pa",
    "latitude": 13.4096159,
    "longitude": 108.4223481,
    "phone": "0964966689",
    "type": "Nhà nghỉ du lịch",
    "star_rating": 2,
    "price_range": "",
    "province": "Gia Lai",
    "region": "Pleiku",
    "legacy_province": "Gia Lai",
    "region_focus": "gia_lai_inland"
  },
  {
    "id": "nha-nghi-hoang-lan",
    "name": "Nhà nghỉ Hoàng Lan",
    "address": "43 Trần Hưng Đạo, Phường Ayun Pa",
    "latitude": 13.9821528,
    "longitude": 108.0052478,
    "phone": "0982107333",
    "type": "Khách sạn",
    "star_rating": 3,
    "price_range": "",
    "province": "Gia Lai",
    "region": "Pleiku",
    "legacy_province": "Gia Lai",
    "region_focus": "gia_lai_inland"
  },
  {
    "id": "nha-nghi-lan-phuong",
    "name": "Nhà nghỉ Lan Phương",
    "address": "Thôn 01, Phường An Khê",
    "latitude": 13.6965015,
    "longitude": 108.0770877,
    "phone": "02693826279",
    "type": "Nhà nghỉ du lịch",
    "star_rating": 2,
    "price_range": "",
    "province": "Bình Định",
    "region": "Bình Định Nội Địa",
    "legacy_province": "Bình Định",
    "region_focus": "binh_dinh_inland"
  },
  {
    "id": "nha-nghi-hoang-yen",
    "name": "Nhà Nghỉ Hoàng Yến",
    "address": "85/2 Nguyễn Thiếp, Phường Diên Hồng",
    "latitude": 13.9778263,
    "longitude": 107.98458,
    "phone": "",
    "type": "Nhà nghỉ du lịch",
    "star_rating": 2,
    "price_range": "",
    "province": "Gia Lai",
    "region": "Pleiku",
    "legacy_province": "Gia Lai",
    "region_focus": "gia_lai_inland"
  },
  {
    "id": "khach-san-nguyen-sang",
    "name": "Khách sạn Nguyên Sang",
    "address": "Tổ dân phố 4, Hoàng Văn Thụ, Xã Đức Cơ",
    "latitude": 13.8030614,
    "longitude": 107.6938747,
    "phone": "0984001010",
    "type": "Khách Sạn",
    "star_rating": 3,
    "price_range": "",
    "province": "Bình Định",
    "region": "Quy Nhơn",
    "legacy_province": "Bình Định",
    "region_focus": "coastal_quy_nhon"
  },
  {
    "id": "nha-nghi-sao-dem",
    "name": "Nhà nghỉ Sao Đêm",
    "address": "Hẻm 43 Lê Thánh Tôn, Phường Diên Hồng",
    "latitude": 13.9720016,
    "longitude": 107.9937191,
    "phone": "",
    "type": "Nhà nghỉ",
    "star_rating": 1,
    "price_range": "",
    "province": "Gia Lai",
    "region": "Pleiku",
    "legacy_province": "Gia Lai",
    "region_focus": "gia_lai_inland"
  },
  {
    "id": "nha-nghi-phuong-nam",
    "name": "Nhà nghỉ Phương Nam",
    "address": "05 Nguyễn Thị Định, Phường Quy Nhơn Nam",
    "latitude": 14.0175338,
    "longitude": 107.9937776,
    "phone": "",
    "type": "Nhà nghỉ du lịch",
    "star_rating": 2,
    "price_range": "",
    "province": "Bình Định",
    "region": "Quy Nhơn",
    "legacy_province": "Bình Định",
    "region_focus": "coastal_quy_nhon"
  },
  {
    "id": "nha-nghi-ngoai-o",
    "name": "Nhà Nghỉ Ngoại Ô",
    "address": "50/1/18 Lê Đại Hành, Phường Thống Nhất",
    "latitude": 14.0114498,
    "longitude": 107.986521,
    "phone": "",
    "type": "Nhà nghỉ du lịch",
    "star_rating": 2,
    "price_range": "",
    "province": "Gia Lai",
    "region": "Pleiku",
    "legacy_province": "Gia Lai",
    "region_focus": "gia_lai_inland"
  },
  {
    "id": "nha-nghi-tan-thanh",
    "name": "Nhà nghỉ Tân Thanh",
    "address": "173 Lê Đại Hành, Phường Thống Nhất",
    "latitude": 14.0114498,
    "longitude": 107.986521,
    "phone": "",
    "type": "Nhà nghỉ du lịch",
    "star_rating": 2,
    "price_range": "",
    "province": "Gia Lai",
    "region": "Pleiku",
    "legacy_province": "Gia Lai",
    "region_focus": "gia_lai_inland"
  },
  {
    "id": "nha-nghi-73",
    "name": "Nhà nghỉ 73",
    "address": "73 Tăng Bạt Hổ, Phường Diên Hồng",
    "latitude": 13.9801905,
    "longitude": 107.993693,
    "phone": "",
    "type": "Nhà nghỉ du lịch",
    "star_rating": 2,
    "price_range": "",
    "province": "Gia Lai",
    "region": "Pleiku",
    "legacy_province": "Gia Lai",
    "region_focus": "gia_lai_inland"
  },
  {
    "id": "nha-nghi-hoa-dang",
    "name": "Nhà Nghỉ Hoa Đăng",
    "address": "42/4 Vạn Kiếp, Phường Thống Nhất",
    "latitude": 14.0006188,
    "longitude": 107.9918868,
    "phone": "02692470608",
    "type": "Nhà nghỉ du lịch",
    "star_rating": 2,
    "price_range": "",
    "province": "Gia Lai",
    "region": "Pleiku",
    "legacy_province": "Gia Lai",
    "region_focus": "gia_lai_inland"
  },
  {
    "id": "nha-nghi-tien-thanh",
    "name": "Nhà nghỉ Tiến Thành",
    "address": "Hẻm 112/24 Phan Đình Phùng, Phường Pleiku",
    "latitude": 13.981211,
    "longitude": 107.9957276,
    "phone": "",
    "type": "Nhà nghỉ du lịch",
    "star_rating": 2,
    "price_range": "",
    "province": "Gia Lai",
    "region": "Pleiku",
    "legacy_province": "Gia Lai",
    "region_focus": "gia_lai_inland"
  },
  {
    "id": "nha-nghi-cay-si",
    "name": " ",
    "address": "Hẻm 112/4/30 Phan Đình Phùng, Phường Pleiku",
    "latitude": 13.981211,
    "longitude": 107.9957276,
    "phone": "",
    "type": "Nhà nghỉ du lịch",
    "star_rating": 2,
    "price_range": "",
    "province": "Gia Lai",
    "region": "Pleiku",
    "legacy_province": "Gia Lai",
    "region_focus": "gia_lai_inland"
  },
  {
    "id": "nha-nghi-van-anh",
    "name": "Nhà nghỉ Vân Anh",
    "address": "75 Nguyễn Thiếp, Phường Diên Hồng",
    "latitude": 13.9778263,
    "longitude": 107.98458,
    "phone": "",
    "type": "Nhà nghỉ du lịch",
    "star_rating": 2,
    "price_range": "",
    "province": "Gia Lai",
    "region": "Pleiku",
    "legacy_province": "Gia Lai",
    "region_focus": "gia_lai_inland"
  },
  {
    "id": "nha-nghi-minh-quang",
    "name": "Nhà Nghỉ Minh Quang",
    "address": "Hẻm 347 Phạm Văn Đồng, Phường Thống Nhất",
    "latitude": 14.0167898,
    "longitude": 107.9920107,
    "phone": "",
    "type": "Nhà nghỉ",
    "star_rating": 1,
    "price_range": "",
    "province": "Gia Lai",
    "region": "Pleiku",
    "legacy_province": "Gia Lai",
    "region_focus": "gia_lai_inland"
  },
  {
    "id": "nha-nghi-ngoc-uyen",
    "name": "Nhà Nghỉ Ngọc Uyên",
    "address": "54 Vạn Kiếp, Phường Thống Nhất",
    "latitude": 14.0006188,
    "longitude": 107.9918868,
    "phone": "",
    "type": "Nhà nghỉ",
    "star_rating": 1,
    "price_range": "",
    "province": "Gia Lai",
    "region": "Pleiku",
    "legacy_province": "Gia Lai",
    "region_focus": "gia_lai_inland"
  },
  {
    "id": "nha-nghi-tan-binh-minh",
    "name": "Nhà nghỉ Tân Bình Minh",
    "address": "108 Lê Thánh Tôn, Phường Diên Hồng",
    "latitude": 13.9720016,
    "longitude": 107.9937191,
    "phone": "02693500168",
    "type": "Nhà nghỉ du lịch",
    "star_rating": 2,
    "price_range": "",
    "province": "Gia Lai",
    "region": "Pleiku",
    "legacy_province": "Gia Lai",
    "region_focus": "gia_lai_inland"
  },
  {
    "id": "nha-nghi-ho-xuan",
    "name": "Nhà nghỉ Hồ Xuân",
    "address": "2/1 Hai Bà Trưng, Phường Diên Hồng",
    "latitude": 13.980817,
    "longitude": 108.0019791,
    "phone": "",
    "type": "Nhà nghỉ du lịch",
    "star_rating": 2,
    "price_range": "",
    "province": "Gia Lai",
    "region": "Pleiku",
    "legacy_province": "Gia Lai",
    "region_focus": "gia_lai_inland"
  },
  {
    "id": "nha-nghi-hoang-uyen",
    "name": "Nhà nghỉ Hoàng Uyên",
    "address": "Thôn 01, Phường An Khê",
    "latitude": 13.7964067,
    "longitude": 108.2608263,
    "phone": "",
    "type": "Nhà nghỉ du lịch",
    "star_rating": 2,
    "price_range": "",
    "province": "Bình Định",
    "region": "Bình Định Nội Địa",
    "legacy_province": "Bình Định",
    "region_focus": "binh_dinh_inland"
  },
  {
    "id": "nha-nghi-samy",
    "name": "Nhà Nghỉ Samy",
    "address": "12 Lê Thị Hồng Gấm, Phường Pleiku",
    "latitude": 13.9897566,
    "longitude": 108.0034679,
    "phone": "",
    "type": "Nhà nghỉ du lịch",
    "star_rating": 2,
    "price_range": "",
    "province": "Gia Lai",
    "region": "Pleiku",
    "legacy_province": "Gia Lai",
    "region_focus": "gia_lai_inland"
  },
  {
    "id": "nha-nghi-mai-anh",
    "name": "Nhà Nghỉ Mai Anh",
    "address": "1/1 Hai Bà Trưng, Phường Diên Hồng",
    "latitude": 13.980817,
    "longitude": 108.0019791,
    "phone": "",
    "type": "Nhà nghỉ du lịch",
    "star_rating": 2,
    "price_range": "",
    "province": "Gia Lai",
    "region": "Pleiku",
    "legacy_province": "Gia Lai",
    "region_focus": "gia_lai_inland"
  },
  {
    "id": "nha-nghi-91",
    "name": "Nhà Nghỉ 91",
    "address": "91/14 Lê Lợi, Phường Pleiku",
    "latitude": 13.9840025,
    "longitude": 108.0075131,
    "phone": "",
    "type": "Nhà nghỉ du lịch",
    "star_rating": 2,
    "price_range": "",
    "province": "Bình Định",
    "region": "Quy Nhơn",
    "legacy_province": "Bình Định",
    "region_focus": "coastal_quy_nhon"
  },
  {
    "id": "nha-nghi-999",
    "name": "Nhà nghỉ 999",
    "address": "116 Lê Thị Hồng Gấm, Phường Diên Hồng",
    "latitude": 13.989521600167777,
    "longitude": 107.99193936602398,
    "phone": "",
    "type": "Khách sạn",
    "star_rating": 3,
    "price_range": "",
    "province": "Gia Lai",
    "region": "Pleiku",
    "legacy_province": "Gia Lai",
    "region_focus": "gia_lai_inland"
  },
  {
    "id": "nha-nghi-149-nguyen-van-cu",
    "name": "Nhà nghỉ 149 Nguyễn Văn Cừ",
    "address": "149 Nguyễn Văn Cừ, Phường Diên Hồng",
    "latitude": 13.7120681,
    "longitude": 108.0677231,
    "phone": "",
    "type": "Nhà nghỉ du lịch",
    "star_rating": 2,
    "price_range": "",
    "province": "Bình Định",
    "region": "Quy Nhơn",
    "legacy_province": "Bình Định",
    "region_focus": "coastal_quy_nhon"
  },
  {
    "id": "nha-nghi-my-anh",
    "name": "Nhà Nghỉ Mỹ Anh",
    "address": "39 Trần Nhật Duật, Phường Diên Hồng",
    "latitude": 13.95693,
    "longitude": 107.9828185,
    "phone": "",
    "type": "Nhà nghỉ du lịch",
    "star_rating": 2,
    "price_range": "",
    "province": "Gia Lai",
    "region": "Pleiku",
    "legacy_province": "Gia Lai",
    "region_focus": "gia_lai_inland"
  },
  {
    "id": "nha-nghi-9999",
    "name": "Nhà Nghỉ 9999",
    "address": "133 Lê Thánh Tôn, Phường Diên Hồng",
    "latitude": 13.9720016,
    "longitude": 107.9937191,
    "phone": "",
    "type": "Nhà nghỉ du lịch",
    "star_rating": 2,
    "price_range": "",
    "province": "Gia Lai",
    "region": "Pleiku",
    "legacy_province": "Gia Lai",
    "region_focus": "gia_lai_inland"
  },
  {
    "id": "nha-nghi-e-va",
    "name": "Nhà nghỉ E- Va",
    "address": "703 Trường Chinh, Phường Pleiku",
    "latitude": 13.9737099,
    "longitude": 108.0150596,
    "phone": "",
    "type": "Nhà nghỉ du lịch",
    "star_rating": 2,
    "price_range": "",
    "province": "Gia Lai",
    "region": "Pleiku",
    "legacy_province": "Gia Lai",
    "region_focus": "gia_lai_inland"
  },
  {
    "id": "nha-nghi-ven-do",
    "name": "Nhà nghỉ Ven Đô",
    "address": "Tổ 10, Phường Pleiku",
    "latitude": 13.6795919,
    "longitude": 108.0852687,
    "phone": "0337631958",
    "type": "Nhà nghỉ du lịch",
    "star_rating": 2,
    "price_range": "",
    "province": "Gia Lai",
    "region": "Pleiku",
    "legacy_province": "Gia Lai",
    "region_focus": "gia_lai_inland"
  },
  {
    "id": "nha-nghi-22",
    "name": "Nhà nghỉ 22",
    "address": "22 Nguyễn Chí Thanh, Phường Hội Phú",
    "latitude": 13.9526957,
    "longitude": 108.0185841,
    "phone": "",
    "type": "Nhà nghỉ",
    "star_rating": 1,
    "price_range": "",
    "province": "Gia Lai",
    "region": "Pleiku",
    "legacy_province": "Gia Lai",
    "region_focus": "gia_lai_inland"
  },
  {
    "id": "hotel-gia-bao",
    "name": "Hotel Gia Bảo",
    "address": "Xã Ia Ly",
    "latitude": 14.2058707,
    "longitude": 107.7669468,
    "phone": "0986578907",
    "type": "Khách sạn",
    "star_rating": 3,
    "price_range": "",
    "province": "Gia Lai",
    "region": "Pleiku",
    "legacy_province": "Gia Lai",
    "region_focus": "gia_lai_inland"
  },
  {
    "id": "nha-nghi-son-tam",
    "name": "Nhà nghỉ Sơn Tâm",
    "address": "Thôn 9, Xã Biển Hồ",
    "latitude": 14.077517,
    "longitude": 107.9475554,
    "phone": "0976297219",
    "type": "Nhà nghỉ du lịch",
    "star_rating": 2,
    "price_range": "",
    "province": "Gia Lai",
    "region": "Pleiku",
    "legacy_province": "Gia Lai",
    "region_focus": "gia_lai_inland"
  },
  {
    "id": "nha-nghi-hoa-mai",
    "name": "Nhà nghỉ Hoa Mai",
    "address": "Hẻm 580/11/39 Trường Chinh, Phường Pleiku",
    "latitude": 13.9735947,
    "longitude": 108.0149552,
    "phone": "",
    "type": "Nhà nghỉ du lịch",
    "star_rating": 2,
    "price_range": "",
    "province": "Gia Lai",
    "region": "Pleiku",
    "legacy_province": "Gia Lai",
    "region_focus": "gia_lai_inland"
  },
  {
    "id": "nha-nghi-phuong-hong",
    "name": "Nhà nghỉ Phượng Hồng",
    "address": "957 Trường Chinh, Phường Pleiku",
    "latitude": 13.9737099,
    "longitude": 108.0150596,
    "phone": "",
    "type": "Nhà nghỉ du lịch",
    "star_rating": 2,
    "price_range": "",
    "province": "Gia Lai",
    "region": "Pleiku",
    "legacy_province": "Gia Lai",
    "region_focus": "gia_lai_inland"
  },
  {
    "id": "nha-nghi-thu-oanh",
    "name": "Nhà nghỉ Thu Oanh",
    "address": "Thôn 01, Phường An Khê",
    "latitude": 13.6980161,
    "longitude": 108.09586188392815,
    "phone": "",
    "type": "Nhà nghỉ du lịch",
    "star_rating": 2,
    "price_range": "",
    "province": "Bình Định",
    "region": "Bình Định Nội Địa",
    "legacy_province": "Bình Định",
    "region_focus": "binh_dinh_inland"
  },
  {
    "id": "nha-nghi-pa-ri",
    "name": "Nhà nghỉ PA RI",
    "address": "860/2/2 Trường Chinh, Phường Pleiku",
    "latitude": 13.9735947,
    "longitude": 108.0149552,
    "phone": "",
    "type": "Nhà nghỉ du lịch",
    "star_rating": 2,
    "price_range": "",
    "province": "Gia Lai",
    "region": "Pleiku",
    "legacy_province": "Gia Lai",
    "region_focus": "gia_lai_inland"
  },
  {
    "id": "nha-nghi-167",
    "name": "Nhà nghỉ 167",
    "address": "Thôn 01, Phường An Khê",
    "latitude": 13.7964067,
    "longitude": 108.2608263,
    "phone": "",
    "type": "Nhà nghỉ du lịch",
    "star_rating": 2,
    "price_range": "",
    "province": "Bình Định",
    "region": "Bình Định Nội Địa",
    "legacy_province": "Bình Định",
    "region_focus": "binh_dinh_inland"
  },
  {
    "id": "nha-nghi-318",
    "name": "Nhà nghỉ 318",
    "address": "Thôn 3, Phường Diên Hồng",
    "latitude": 13.95693,
    "longitude": 107.9828185,
    "phone": "",
    "type": "Nhà nghỉ du lịch",
    "star_rating": 2,
    "price_range": "",
    "province": "Gia Lai",
    "region": "Pleiku",
    "legacy_province": "Gia Lai",
    "region_focus": "gia_lai_inland"
  },
  {
    "id": "nha-nghi-chip-chip",
    "name": "Nhà nghỉ Chip Chip",
    "address": "Hẻm 580/1 Trường Chinh, Phường Pleiku",
    "latitude": 13.9737099,
    "longitude": 108.0150596,
    "phone": "",
    "type": "Nhà nghỉ",
    "star_rating": 1,
    "price_range": "",
    "province": "Gia Lai",
    "region": "Pleiku",
    "legacy_province": "Gia Lai",
    "region_focus": "gia_lai_inland"
  },
  {
    "id": "nha-nghi-hoa-hong",
    "name": "Nhà nghỉ Hoa Hồng",
    "address": "Tổ 1, Phường An Khê",
    "latitude": 13.9719812,
    "longitude": 108.6750094,
    "phone": "0869522470",
    "type": "Nhà nghỉ du lịch",
    "star_rating": 2,
    "price_range": "",
    "province": "Bình Định",
    "region": "Bình Định Nội Địa",
    "legacy_province": "Bình Định",
    "region_focus": "binh_dinh_inland"
  },
  {
    "id": "nha-nghi-dung-thoa",
    "name": "Nhà Nghỉ Dũng Thoa",
    "address": "Tổ dân phố 4, Phường An Khê",
    "latitude": 13.7964067,
    "longitude": 108.2608263,
    "phone": "0974960594",
    "type": "Nhà nghỉ du lịch",
    "star_rating": 2,
    "price_range": "",
    "province": "Bình Định",
    "region": "Bình Định Nội Địa",
    "legacy_province": "Bình Định",
    "region_focus": "binh_dinh_inland"
  },
  {
    "id": "nha-nghi-son-nga",
    "name": "Nhà nghỉ Sơn Nga",
    "address": "Thôn Mới, Phường An Khê",
    "latitude": 13.7964067,
    "longitude": 108.2608263,
    "phone": "0976004234",
    "type": "Nhà nghỉ du lịch",
    "star_rating": 2,
    "price_range": "",
    "province": "Bình Định",
    "region": "Bình Định Nội Địa",
    "legacy_province": "Bình Định",
    "region_focus": "binh_dinh_inland"
  },
  {
    "id": "nha-nghi-ven-ho",
    "name": "Nhà nghỉ Ven Hồ",
    "address": "Buôn Tang, Xã Phú Thiện",
    "latitude": 13.0615713,
    "longitude": 108.7311038,
    "phone": "0978712714",
    "type": "Nhà nghỉ du lịch",
    "star_rating": 2,
    "price_range": "",
    "province": "Gia Lai",
    "region": "Pleiku",
    "legacy_province": "Gia Lai",
    "region_focus": "gia_lai_inland"
  },
  {
    "id": "nha-nghi-phuong-nga",
    "name": "Nhà nghỉ Phương nga",
    "address": "Thôn 2, Phường Diên Hồng",
    "latitude": 13.95693,
    "longitude": 107.9828185,
    "phone": "",
    "type": "Nhà nghỉ du lịch",
    "star_rating": 2,
    "price_range": "",
    "province": "Gia Lai",
    "region": "Pleiku",
    "legacy_province": "Gia Lai",
    "region_focus": "gia_lai_inland"
  },
  {
    "id": "nha-nghi-230",
    "name": "Nhà nghỉ 230",
    "address": "Thôn 3, Xã Biển Hồ",
    "latitude": 14.0401981,
    "longitude": 107.9998354,
    "phone": "",
    "type": "Nhà nghỉ du lịch",
    "star_rating": 2,
    "price_range": "",
    "province": "Gia Lai",
    "region": "Pleiku",
    "legacy_province": "Gia Lai",
    "region_focus": "gia_lai_inland"
  },
  {
    "id": "nha-khach-ubnd-huyen-kbang",
    "name": "Nhà khách UBND huyện Kbang",
    "address": "Số 70 - Trần Hưng Đạo, Xã Kbang",
    "latitude": 14.301794600000001,
    "longitude": 108.47937459255267,
    "phone": "0269217175",
    "type": "Nhà nghỉ du lịch",
    "star_rating": 2,
    "price_range": "",
    "province": "Gia Lai",
    "region": "Pleiku",
    "legacy_province": "Gia Lai",
    "region_focus": "gia_lai_inland"
  },
  {
    "id": "nha-nghi-bao-long",
    "name": "Nhà nghỉ Bảo Long",
    "address": "565 Lê Thánh Tôn, Phường Hội Phú",
    "latitude": 13.9696916,
    "longitude": 107.9934409,
    "phone": "02693718459",
    "type": "Nhà nghỉ du lịch",
    "star_rating": 2,
    "price_range": "",
    "province": "Gia Lai",
    "region": "Pleiku",
    "legacy_province": "Gia Lai",
    "region_focus": "gia_lai_inland"
  },
  {
    "id": "nha-khach-ubnd-huyen-krong-pa",
    "name": "Nhà khách UBND huyện Krông Pa",
    "address": "Tổ dân phố 7, Xã Phú Túc",
    "latitude": 13.2348415,
    "longitude": 108.6668368242042,
    "phone": "02693853169",
    "type": "Nhà nghỉ du lịch",
    "star_rating": 2,
    "price_range": "",
    "province": "Gia Lai",
    "region": "Pleiku",
    "legacy_province": "Gia Lai",
    "region_focus": "gia_lai_inland"
  },
  {
    "id": "nha-nghi-tran-trong-huy",
    "name": "Nhà nghỉ Trần Trọng Huy",
    "address": "Thôn Mới, Phường An Khê",
    "latitude": 13.7964067,
    "longitude": 108.2608263,
    "phone": "0986570117",
    "type": "Nhà nghỉ du lịch",
    "star_rating": 2,
    "price_range": "",
    "province": "Bình Định",
    "region": "Bình Định Nội Địa",
    "legacy_province": "Bình Định",
    "region_focus": "binh_dinh_inland"
  },
  {
    "id": "nha-nghi-truong-thinh",
    "name": "Nhà nghỉ Trường Thịnh",
    "address": "Thôn Mới, Phường An Khê",
    "latitude": 13.7964067,
    "longitude": 108.2608263,
    "phone": "0985127779",
    "type": "Nhà nghỉ du lịch",
    "star_rating": 2,
    "price_range": "",
    "province": "Bình Định",
    "region": "Bình Định Nội Địa",
    "legacy_province": "Bình Định",
    "region_focus": "binh_dinh_inland"
  },
  {
    "id": "nha-nghi-khanh-uyen",
    "name": "Nhà nghỉ Khánh Uyên",
    "address": "Tổ dân phố 4, Phường An Khê",
    "latitude": 13.7964067,
    "longitude": 108.2608263,
    "phone": "0982284459",
    "type": "Nhà nghỉ du lịch",
    "star_rating": 2,
    "price_range": "",
    "province": "Bình Định",
    "region": "Bình Định Nội Địa",
    "legacy_province": "Bình Định",
    "region_focus": "binh_dinh_inland"
  },
  {
    "id": "nha-nghi-thai-phuong",
    "name": "Nhà Nghỉ Thái Phương",
    "address": "Tổ dân phố 5, Phường An Khê",
    "latitude": 13.7964067,
    "longitude": 108.2608263,
    "phone": null,
    "type": "Nhà nghỉ du lịch",
    "star_rating": 2,
    "price_range": "",
    "province": "Bình Định",
    "region": "Bình Định Nội Địa",
    "legacy_province": "Bình Định",
    "region_focus": "binh_dinh_inland"
  },
  {
    "id": "nha-nghi-hoa-hong-an-phu",
    "name": "Nhà nghỉ Hoa Hồng (An Phú)",
    "address": "CMT8 nối dài, Phường An Khê",
    "latitude": 13.9868488,
    "longitude": 108.0083335,
    "phone": "0869522470",
    "type": "Nhà nghỉ du lịch",
    "star_rating": 2,
    "price_range": "",
    "province": "Bình Định",
    "region": "Bình Định Nội Địa",
    "legacy_province": "Bình Định",
    "region_focus": "binh_dinh_inland"
  },
  {
    "id": "nha-khach-ngoc-duong",
    "name": "Nhà khách Ngọc Dương",
    "address": "Đường Lê Thánh Tông, Xã Kbang",
    "latitude": 14.301794600000001,
    "longitude": 108.47937459255267,
    "phone": "0905928521",
    "type": "Nhà nghỉ du lịch",
    "star_rating": 2,
    "price_range": "",
    "province": "Gia Lai",
    "region": "Pleiku",
    "legacy_province": "Gia Lai",
    "region_focus": "gia_lai_inland"
  },
  {
    "id": "nha-khach-tuan-vu",
    "name": "Nhà khách Tuấn Vũ",
    "address": "Số 23B - Võ Thị Sáu, Xã Kbang",
    "latitude": 14.301794600000001,
    "longitude": 108.47937459255267,
    "phone": "02693880015",
    "type": "Nhà nghỉ du lịch",
    "star_rating": 2,
    "price_range": "",
    "province": "Gia Lai",
    "region": "Pleiku",
    "legacy_province": "Gia Lai",
    "region_focus": "gia_lai_inland"
  },
  {
    "id": "nha-nghi-ly-kinh",
    "name": "Nhà nghỉ Lý Kình",
    "address": "Số 468 - Quang Trung, Xã Kbang",
    "latitude": 14.301794600000001,
    "longitude": 108.47937459255267,
    "phone": "0935880344",
    "type": "Nhà nghỉ du lịch",
    "star_rating": 2,
    "price_range": "",
    "province": "Gia Lai",
    "region": "Pleiku",
    "legacy_province": "Gia Lai",
    "region_focus": "gia_lai_inland"
  },
  {
    "id": "nha-nghi-tuan-dat",
    "name": "Nhà nghỉ Tuấn Đạt",
    "address": "Số 216 - Quang Trung, Xã Kbang",
    "latitude": 14.301794600000001,
    "longitude": 108.47937459255267,
    "phone": "0905034209",
    "type": "Nhà nghỉ du lịch",
    "star_rating": 2,
    "price_range": "",
    "province": "Gia Lai",
    "region": "Pleiku",
    "legacy_province": "Gia Lai",
    "region_focus": "gia_lai_inland"
  },
  {
    "id": "nha-nghi-tuan-dung",
    "name": "Nhà nghỉ Tuấn Dũng",
    "address": "Số 323 - Quang Trung, Xã Kbang",
    "latitude": 14.301794600000001,
    "longitude": 108.47937459255267,
    "phone": "0354380140",
    "type": "Nhà nghỉ",
    "star_rating": 1,
    "price_range": "",
    "province": "Gia Lai",
    "region": "Pleiku",
    "legacy_province": "Gia Lai",
    "region_focus": "gia_lai_inland"
  },
  {
    "id": "nha-nghi-thong-nhat-2",
    "name": "Nhà nghỉ Thống Nhất 2",
    "address": "719 Phạm Văn Đồng, Phường Thống Nhất",
    "latitude": 14.0335112,
    "longitude": 107.9886541,
    "phone": "",
    "type": "Nhà nghỉ du lịch",
    "star_rating": 2,
    "price_range": "",
    "province": "Gia Lai",
    "region": "Pleiku",
    "legacy_province": "Gia Lai",
    "region_focus": "gia_lai_inland"
  },
  {
    "id": "nha-nghi-thien-ngan",
    "name": "Nhà nghỉ Thiên Ngân",
    "address": "25A Chu Mạnh Trinh, Phường Hội Phú",
    "latitude": 13.9608117,
    "longitude": 107.9977404,
    "phone": "",
    "type": "Nhà nghỉ du lịch",
    "star_rating": 2,
    "price_range": "",
    "province": "Gia Lai",
    "region": "Pleiku",
    "legacy_province": "Gia Lai",
    "region_focus": "gia_lai_inland"
  },
  {
    "id": "nha-nghi-tien-voi-an-phu",
    "name": "Nhà nghỉ Tiến vôi (An Phú)",
    "address": "Thôn 01, Phường An Khê",
    "latitude": 13.7964067,
    "longitude": 108.2608263,
    "phone": "0902976980",
    "type": "Nhà nghỉ du lịch",
    "star_rating": 2,
    "price_range": "",
    "province": "Bình Định",
    "region": "Bình Định Nội Địa",
    "legacy_province": "Bình Định",
    "region_focus": "binh_dinh_inland"
  },
  {
    "id": "nha-nghi-tan-trang",
    "name": "Nhà nghỉ Tân Trang",
    "address": "Tổ dân phố 6, Phường An Khê",
    "latitude": 13.7964067,
    "longitude": 108.2608263,
    "phone": null,
    "type": "Nhà nghỉ du lịch",
    "star_rating": 2,
    "price_range": "",
    "province": "Bình Định",
    "region": "Bình Định Nội Địa",
    "legacy_province": "Bình Định",
    "region_focus": "binh_dinh_inland"
  },
  {
    "id": "nha-nghi-thong-nhat",
    "name": "Nhà nghỉ Thống Nhất",
    "address": "675 Phạm Văn Đồng, Phường Thống Nhất",
    "latitude": 14.0114739,
    "longitude": 107.9933968,
    "phone": "",
    "type": "Nhà nghỉ du lịch",
    "star_rating": 2,
    "price_range": "",
    "province": "Gia Lai",
    "region": "Pleiku",
    "legacy_province": "Gia Lai",
    "region_focus": "gia_lai_inland"
  },
  {
    "id": "nha-khach-cong-ty-tnhh-mtv-huu-nghi-nam-lao-quan-khu-5",
    "name": "Nhà Khách Công ty TNHH MTV Hữu Nghị Nam Lào - Quân Khu 5",
    "address": "Xã Ia Nan",
    "latitude": 13.721515,
    "longitude": 107.6013819,
    "phone": "",
    "type": "Nhà nghỉ du lịch",
    "star_rating": 2,
    "price_range": "",
    "province": "Gia Lai",
    "region": "Pleiku",
    "legacy_province": "Gia Lai",
    "region_focus": "gia_lai_inland"
  },
  {
    "id": "nha-khach-noi-bo-cong-doan",
    "name": "Nhà khách nội bộ Công đoàn",
    "address": "04 Tăng Bạt Hổ, Phường Diên Hồng",
    "latitude": 13.9801905,
    "longitude": 107.993693,
    "phone": "02693719498",
    "type": "Nhà nghỉ du lịch",
    "star_rating": 2,
    "price_range": "",
    "province": "Gia Lai",
    "region": "Pleiku",
    "legacy_province": "Gia Lai",
    "region_focus": "gia_lai_inland"
  },
  {
    "id": "nha-nghi-thanh-binh-an-phu",
    "name": "Nhà nghỉ Thanh Bình (An Phú)",
    "address": "Tổ 3, Phường An Khê",
    "latitude": 14.0221216,
    "longitude": 108.69422150756694,
    "phone": "0905391808",
    "type": "Nhà nghỉ du lịch",
    "star_rating": 2,
    "price_range": "",
    "province": "Bình Định",
    "region": "Bình Định Nội Địa",
    "legacy_province": "Bình Định",
    "region_focus": "binh_dinh_inland"
  },
  {
    "id": "nha-nghi-son-thuy",
    "name": "Nhà nghỉ Sơn Thủy",
    "address": "Thôn Thống nhất, Xã Sơn Lang",
    "latitude": 14.4395203,
    "longitude": 108.5495703,
    "phone": "0961418045",
    "type": "Nhà nghỉ du lịch",
    "star_rating": 2,
    "price_range": "",
    "province": "Gia Lai",
    "region": "Pleiku",
    "legacy_province": "Gia Lai",
    "region_focus": "gia_lai_inland"
  },
  {
    "id": "nha-nghi-kha-nhi",
    "name": "Nhà nghỉ Kha Nhi",
    "address": "Tổ 1, Phường An Khê",
    "latitude": 10.9749176,
    "longitude": 106.4773528,
    "phone": "0906565899",
    "type": "Nhà nghỉ du lịch",
    "star_rating": 2,
    "price_range": "",
    "province": "Bình Định",
    "region": "Bình Định Nội Địa",
    "legacy_province": "Bình Định",
    "region_focus": "binh_dinh_inland"
  },
  {
    "id": "nha-nghi-thu-giao",
    "name": "Nhà nghỉ Thư Giao",
    "address": "Tổ 2, Phường An Khê",
    "latitude": 13.9719812,
    "longitude": 108.6750094,
    "phone": "0965877974",
    "type": "Nhà nghỉ du lịch",
    "star_rating": 2,
    "price_range": "",
    "province": "Bình Định",
    "region": "Bình Định Nội Địa",
    "legacy_province": "Bình Định",
    "region_focus": "binh_dinh_inland"
  },
  {
    "id": "nha-khach-binh-doan-15",
    "name": "Nhà khách Binh đoàn 15",
    "address": "Tổ 6, Phường Thống Nhất",
    "latitude": 13.7964067,
    "longitude": 108.2608263,
    "phone": "01642808089",
    "type": "Nhà nghỉ du lịch",
    "star_rating": 2,
    "price_range": "",
    "province": "Gia Lai",
    "region": "Pleiku",
    "legacy_province": "Gia Lai",
    "region_focus": "gia_lai_inland"
  },
  {
    "id": "nha-nghi-thao-ngoc",
    "name": "Nhà nghỉ Thảo Ngọc",
    "address": "Tổ 3, Phường An Khê",
    "latitude": 13.9719812,
    "longitude": 108.6750094,
    "phone": "0383618461",
    "type": "Nhà nghỉ du lịch",
    "star_rating": 2,
    "price_range": "",
    "province": "Bình Định",
    "region": "Bình Định Nội Địa",
    "legacy_province": "Bình Định",
    "region_focus": "binh_dinh_inland"
  },
  {
    "id": "nha-nghi-tuong-vy",
    "name": "Nhà nghỉ Tường Vy",
    "address": "Tổ 1, Phường An Khê",
    "latitude": 13.9719812,
    "longitude": 108.6750094,
    "phone": "0982722265",
    "type": "Nhà nghỉ du lịch",
    "star_rating": 2,
    "price_range": "",
    "province": "Bình Định",
    "region": "Bình Định Nội Địa",
    "legacy_province": "Bình Định",
    "region_focus": "binh_dinh_inland"
  },
  {
    "id": "nha-nghi-trang-non",
    "name": "Nhà nghỉ Trăng Non",
    "address": "354 Lê Thánh Tôn, Phường Diên Hồng",
    "latitude": 13.9696916,
    "longitude": 107.9934409,
    "phone": "",
    "type": "Nhà nghỉ du lịch",
    "star_rating": 2,
    "price_range": "",
    "province": "Gia Lai",
    "region": "Pleiku",
    "legacy_province": "Gia Lai",
    "region_focus": "gia_lai_inland"
  },
  {
    "id": "nha-nghi-dien-phu",
    "name": "Nhà nghỉ diên phú",
    "address": "Thôn 2, Phường Diên Hồng",
    "latitude": 13.9715982,
    "longitude": 108.0143597,
    "phone": "",
    "type": "Nhà nghỉ du lịch",
    "star_rating": 2,
    "price_range": "",
    "province": "Gia Lai",
    "region": "Pleiku",
    "legacy_province": "Gia Lai",
    "region_focus": "gia_lai_inland"
  },
  {
    "id": "nha-nghi-thuong-tinh",
    "name": "Nhà nghỉ Thương Tính",
    "address": "Thôn An Thượng 2, Phường An Bình",
    "latitude": 13.9504742,
    "longitude": 108.6608142,
    "phone": "0944276133",
    "type": "Nhà nghỉ du lịch",
    "star_rating": 2,
    "price_range": "",
    "province": "Gia Lai",
    "region": "Pleiku",
    "legacy_province": "Gia Lai",
    "region_focus": "gia_lai_inland"
  },
  {
    "id": "nha-nghi-ngoc-long",
    "name": "Nhà nghỉ Ngọc Long",
    "address": "Tổ 2, Phường An Khê",
    "latitude": 13.9719812,
    "longitude": 108.6750094,
    "phone": "0934421906",
    "type": "Nhà nghỉ du lịch",
    "star_rating": 2,
    "price_range": "",
    "province": "Bình Định",
    "region": "Bình Định Nội Địa",
    "legacy_province": "Bình Định",
    "region_focus": "binh_dinh_inland"
  },
  {
    "id": "nha-nghi-thuy-vi",
    "name": "Nhà nghỉ Thúy Vi",
    "address": "Tổ 1, Phường An Khê",
    "latitude": 14.3615399,
    "longitude": 108.0115324,
    "phone": "0978992477",
    "type": "Nhà nghỉ du lịch",
    "star_rating": 2,
    "price_range": "",
    "province": "Bình Định",
    "region": "Bình Định Nội Địa",
    "legacy_province": "Bình Định",
    "region_focus": "binh_dinh_inland"
  },
  {
    "id": "nha-nghi-anh-thu",
    "name": "Nhà nghỉ Anh Thư",
    "address": "Tổ, Phường An Khê",
    "latitude": 14.0221216,
    "longitude": 108.69422150756694,
    "phone": "0977830862",
    "type": "Nhà nghỉ du lịch",
    "star_rating": 2,
    "price_range": "",
    "province": "Bình Định",
    "region": "Bình Định Nội Địa",
    "legacy_province": "Bình Định",
    "region_focus": "binh_dinh_inland"
  },
  {
    "id": "nha-nghi-le-diem",
    "name": "Nhà nghỉ Lê Diễm",
    "address": "263 A Quang Trung, Phường Pleiku",
    "latitude": 10.0110941,
    "longitude": 105.7875403,
    "phone": "0981793355",
    "type": "Nhà nghỉ du lịch",
    "star_rating": 2,
    "price_range": "",
    "province": "Gia Lai",
    "region": "Pleiku",
    "legacy_province": "Gia Lai",
    "region_focus": "gia_lai_inland"
  },
  {
    "id": "nha-nghi-ban-mai",
    "name": "Nhà nghỉ Ban Mai",
    "address": "Tổ 1, Phường An Bình",
    "latitude": 13.8221662,
    "longitude": 107.9519456,
    "phone": "0971444000",
    "type": "Nhà nghỉ du lịch",
    "star_rating": 2,
    "price_range": "",
    "province": "Gia Lai",
    "region": "Pleiku",
    "legacy_province": "Gia Lai",
    "region_focus": "gia_lai_inland"
  },
  {
    "id": "nha-nghi-duy-trong",
    "name": "Nhà nghỉ Duy Trọng",
    "address": "418 Quang Trung, Phường Pleiku",
    "latitude": 13.976222629075162,
    "longitude": 108.00539016723634,
    "phone": null,
    "type": "Nhà nghỉ du lịch",
    "star_rating": 2,
    "price_range": "",
    "province": "Gia Lai",
    "region": "Pleiku",
    "legacy_province": "Gia Lai",
    "region_focus": "gia_lai_inland"
  },
  {
    "id": "nha-nghi-80-phan-chu-trinh",
    "name": "Nhà nghỉ 80 Phan Chu Trinh",
    "address": "Làng Pi ơm, Phường An Khê",
    "latitude": 14.1846952,
    "longitude": 108.1060717,
    "phone": "0917248800",
    "type": "Nhà nghỉ du lịch",
    "star_rating": 2,
    "price_range": "",
    "province": "Bình Định",
    "region": "Bình Định Nội Địa",
    "legacy_province": "Bình Định",
    "region_focus": "binh_dinh_inland"
  },
  {
    "id": "nha-nghi-kieu-van-thang",
    "name": "Nhà nghỉ Kiều Văn Thắng",
    "address": "Sê San 4, Xã Ia Krái",
    "latitude": 13.7964067,
    "longitude": 108.2608263,
    "phone": "0347813456",
    "type": "Nhà nghỉ du lịch",
    "star_rating": 2,
    "price_range": "",
    "province": "Gia Lai",
    "region": "Pleiku",
    "legacy_province": "Gia Lai",
    "region_focus": "gia_lai_inland"
  },
  {
    "id": "nha-nghi-bui-van-duong",
    "name": "Nhà nghỉ Bùi Văn Dương",
    "address": "Sê San 4, Xã Ia Krái",
    "latitude": 13.7964067,
    "longitude": 108.2608263,
    "phone": "0363301689",
    "type": "Nhà nghỉ du lịch",
    "star_rating": 2,
    "price_range": "",
    "province": "Gia Lai",
    "region": "Pleiku",
    "legacy_province": "Gia Lai",
    "region_focus": "gia_lai_inland"
  },
  {
    "id": "nha-nghi-nguyen-chi",
    "name": "Nhà nghỉ Nguyên Chi",
    "address": "40 Lê Quý đôn, Phường Pleiku",
    "latitude": 13.9696096,
    "longitude": 108.0017563,
    "phone": "0968953179",
    "type": "Nhà nghỉ du lịch",
    "star_rating": 2,
    "price_range": "",
    "province": "Gia Lai",
    "region": "Pleiku",
    "legacy_province": "Gia Lai",
    "region_focus": "gia_lai_inland"
  },
  {
    "id": "nha-tro-hoang-linh",
    "name": "Nhà trọ Hoàng Linh",
    "address": "Thôn 3, Xã Biển Hồ",
    "latitude": 13.7964067,
    "longitude": 108.2608263,
    "phone": "0972841179",
    "type": "Nhà nghỉ du lịch",
    "star_rating": 2,
    "price_range": "",
    "province": "Gia Lai",
    "region": "Pleiku",
    "legacy_province": "Gia Lai",
    "region_focus": "gia_lai_inland"
  },
  {
    "id": "nha-nghi-tien-voi-quy-nhon",
    "name": "Nhà nghỉ Tiến Vôi (Quy Nhơn)",
    "address": "68 Nguyễn Huệ, Phường Quy Nhơn",
    "latitude": 14.3467274,
    "longitude": 107.9999052,
    "phone": "0902976980",
    "type": "Nhà nghỉ du lịch",
    "star_rating": 2,
    "price_range": "",
    "province": "Bình Định",
    "region": "Quy Nhơn",
    "legacy_province": "Bình Định",
    "region_focus": "coastal_quy_nhon"
  },
  {
    "id": "nha-nghi-hien-bao",
    "name": "Nhà nghỉ Hiền Bảo",
    "address": "Sê San 4, Xã Ia Krái",
    "latitude": 13.7964067,
    "longitude": 108.2608263,
    "phone": "0902940012",
    "type": "Nhà nghỉ du lịch",
    "star_rating": 2,
    "price_range": "",
    "province": "Gia Lai",
    "region": "Pleiku",
    "legacy_province": "Gia Lai",
    "region_focus": "gia_lai_inland"
  },
  {
    "id": "nha-nghi-nam-phuong",
    "name": "Nhà nghỉ Nam Phương",
    "address": "Thôn H Lâm, Phường Quy Nhơn Nam",
    "latitude": 13.7715552,
    "longitude": 107.65923805336625,
    "phone": null,
    "type": "Nhà nghỉ du lịch",
    "star_rating": 2,
    "price_range": "",
    "province": "Bình Định",
    "region": "Quy Nhơn",
    "legacy_province": "Bình Định",
    "region_focus": "coastal_quy_nhon"
  },
  {
    "id": "nha-nghi-anh-duong",
    "name": "Nhà nghỉ Ánh Dương",
    "address": "Tổ dân phố 7, Xã Phú Túc",
    "latitude": 13.9715982,
    "longitude": 108.0143597,
    "phone": "0394505443",
    "type": "Nhà nghỉ du lịch",
    "star_rating": 2,
    "price_range": "",
    "province": "Gia Lai",
    "region": "Pleiku",
    "legacy_province": "Gia Lai",
    "region_focus": "gia_lai_inland"
  },
  {
    "id": "nha-nghi-nguyen-thanh-phu",
    "name": "Nhà nghỉ Nguyên Thành Phú",
    "address": "416- Nguyễn Huệ, Phường Quy Nhơn",
    "latitude": 13.9715982,
    "longitude": 108.0143597,
    "phone": "0977422441",
    "type": "Nhà nghỉ du lịch",
    "star_rating": 2,
    "price_range": "",
    "province": "Bình Định",
    "region": "Quy Nhơn",
    "legacy_province": "Bình Định",
    "region_focus": "coastal_quy_nhon"
  },
  {
    "id": "nha-nghi-nano-y",
    "name": "Nhà nghỉ Nano ý",
    "address": "Tổ dân phố 7, Xã Phú Túc",
    "latitude": 13.9715982,
    "longitude": 108.0143597,
    "phone": "0937097794",
    "type": "Nhà nghỉ du lịch",
    "star_rating": 2,
    "price_range": "",
    "province": "Gia Lai",
    "region": "Pleiku",
    "legacy_province": "Gia Lai",
    "region_focus": "gia_lai_inland"
  },
  {
    "id": "nha-nghi-369",
    "name": "Nhà nghỉ 369",
    "address": "TDP2, Phường An Khê",
    "latitude": 13.7964067,
    "longitude": 108.2608263,
    "phone": "0934720369",
    "type": "Nhà nghỉ du lịch",
    "star_rating": 2,
    "price_range": "",
    "province": "Bình Định",
    "region": "Bình Định Nội Địa",
    "legacy_province": "Bình Định",
    "region_focus": "binh_dinh_inland"
  },
  {
    "id": "nha-nghi-thanh-binh-an-khe",
    "name": "Nhà nghỉ Thanh Bình (An Khê)",
    "address": "Tổ dân phố 6, Phường An Khê",
    "latitude": 13.7964067,
    "longitude": 108.2608263,
    "phone": "0905391808",
    "type": "Nhà nghỉ du lịch",
    "star_rating": 2,
    "price_range": "",
    "province": "Bình Định",
    "region": "Bình Định Nội Địa",
    "legacy_province": "Bình Định",
    "region_focus": "binh_dinh_inland"
  },
  {
    "id": "nha-nghi-cao-nguyen",
    "name": "Nhà nghỉ Cao nguyên",
    "address": "182-Nguyễn Huệ, Phường Quy Nhơn",
    "latitude": 13.9715982,
    "longitude": 108.0143597,
    "phone": "0978261859",
    "type": "Nhà nghỉ du lịch",
    "star_rating": 2,
    "price_range": "",
    "province": "Bình Định",
    "region": "Quy Nhơn",
    "legacy_province": "Bình Định",
    "region_focus": "coastal_quy_nhon"
  },
  {
    "id": "nha-nghi-hoang-chau",
    "name": "Nhà nghỉ Hoàng Châu",
    "address": "Làng Doch Ia Krot, Xã Phú Thiện",
    "latitude": 13.9523313,
    "longitude": 107.5459286,
    "phone": "0969389179",
    "type": "Nhà nghỉ du lịch",
    "star_rating": 2,
    "price_range": "",
    "province": "Gia Lai",
    "region": "Pleiku",
    "legacy_province": "Gia Lai",
    "region_focus": "gia_lai_inland"
  },
  {
    "id": "nha-nghi-binh-dao",
    "name": "Nhà nghỉ Bình Đào",
    "address": "Tổ dân phố 1, Xã Phú Thiện",
    "latitude": 13.7964067,
    "longitude": 108.2608263,
    "phone": "0966410970",
    "type": "Nhà nghỉ",
    "star_rating": 1,
    "price_range": "",
    "province": "Gia Lai",
    "region": "Pleiku",
    "legacy_province": "Gia Lai",
    "region_focus": "gia_lai_inland"
  },
  {
    "id": "nha-nghi-172",
    "name": "Nhà nghỉ 172",
    "address": "172-Nguyễn Huệ, Phường Quy Nhơn",
    "latitude": 13.9715982,
    "longitude": 108.0143597,
    "phone": "0963116764",
    "type": "Nhà nghỉ",
    "star_rating": 1,
    "price_range": "",
    "province": "Bình Định",
    "region": "Quy Nhơn",
    "legacy_province": "Bình Định",
    "region_focus": "coastal_quy_nhon"
  },
  {
    "id": "nha-nghi-cay-dua",
    "name": "Nhà nghỉ Cây dừa",
    "address": "Thôn 3, Xã Biển Hồ",
    "latitude": 13.7964067,
    "longitude": 108.2608263,
    "phone": null,
    "type": "Nhà nghỉ du lịch",
    "star_rating": 2,
    "price_range": "",
    "province": "Gia Lai",
    "region": "Pleiku",
    "legacy_province": "Gia Lai",
    "region_focus": "gia_lai_inland"
  },
  {
    "id": "nha-nghi-cuong-the",
    "name": "Nhà nghỉ Cường Thể",
    "address": "Tổ 1, Phường An Khê",
    "latitude": 13.9719812,
    "longitude": 108.6750094,
    "phone": "0365186517",
    "type": "Nhà nghỉ du lịch",
    "star_rating": 2,
    "price_range": "",
    "province": "Bình Định",
    "region": "Bình Định Nội Địa",
    "legacy_province": "Bình Định",
    "region_focus": "binh_dinh_inland"
  },
  {
    "id": "nha-nghi-phu-gia",
    "name": "Nhà nghỉ Phú Gia",
    "address": "345 Quang Trung, Phường Pleiku",
    "latitude": 10.0110941,
    "longitude": 105.7875403,
    "phone": "02693538678",
    "type": "Nhà nghỉ du lịch",
    "star_rating": 2,
    "price_range": "",
    "province": "Gia Lai",
    "region": "Pleiku",
    "legacy_province": "Gia Lai",
    "region_focus": "gia_lai_inland"
  },
  {
    "id": "khach-san-lamaison-de-dinh",
    "name": "Khách sạn LAMAISON de Dinh",
    "address": "1118 Quang Trung, Phường Pleiku",
    "latitude": 13.9715982,
    "longitude": 108.0143597,
    "phone": "02693655777",
    "type": "Khách sạn",
    "star_rating": 3,
    "price_range": "",
    "province": "Gia Lai",
    "region": "Pleiku",
    "legacy_province": "Gia Lai",
    "region_focus": "gia_lai_inland"
  },
  {
    "id": "nha-nghi-hoang-hai",
    "name": "Nhà nghỉ Hoàng Hải",
    "address": "Tổ dân phố 1, Xã Phú Thiện",
    "latitude": 13.9715982,
    "longitude": 108.0143597,
    "phone": "0905324965",
    "type": "Nhà nghỉ du lịch",
    "star_rating": 2,
    "price_range": "",
    "province": "Gia Lai",
    "region": "Pleiku",
    "legacy_province": "Gia Lai",
    "region_focus": "gia_lai_inland"
  },
  {
    "id": "nha-nghi-289",
    "name": "Nhà nghỉ 289",
    "address": "Tổ dân phố 3, Xã Phú Thiện",
    "latitude": 13.7964067,
    "longitude": 108.2608263,
    "phone": "02693844770",
    "type": "Nhà nghỉ du lịch",
    "star_rating": 2,
    "price_range": "",
    "province": "Gia Lai",
    "region": "Pleiku",
    "legacy_province": "Gia Lai",
    "region_focus": "gia_lai_inland"
  },
  {
    "id": "nha-nghi-123",
    "name": "Nhà nghỉ 123",
    "address": "Tổ 1, Phường An Khê",
    "latitude": 14.0221216,
    "longitude": 108.69422150756694,
    "phone": "0935233326",
    "type": "Nhà nghỉ du lịch",
    "star_rating": 2,
    "price_range": "",
    "province": "Bình Định",
    "region": "Bình Định Nội Địa",
    "legacy_province": "Bình Định",
    "region_focus": "binh_dinh_inland"
  },
  {
    "id": "lang-toi-2-homestay-gradena",
    "name": "Làng Tôi 2 - Homestay & Gradena",
    "address": "Thôn Tân Lập, Xã Ia Khươl",
    "latitude": 14.1934628,
    "longitude": 107.915195613,
    "phone": "0349028678",
    "type": "Homestay",
    "star_rating": 2,
    "price_range": "",
    "province": "Gia Lai",
    "region": "Pleiku",
    "legacy_province": "Gia Lai",
    "region_focus": "gia_lai_inland"
  },
  {
    "id": "nha-nghi-hoa-hong-ia-khuol",
    "name": "Nhà Nghỉ Hoa Hồng (Ia Khuol)",
    "address": "Thôn Tân Lập, Xã Ia Khươl",
    "latitude": 14.1922319,
    "longitude": 107.8908929,
    "phone": "0869522470",
    "type": "Nhà nghỉ du lịch",
    "star_rating": 2,
    "price_range": "",
    "province": "Gia Lai",
    "region": "Pleiku",
    "legacy_province": "Gia Lai",
    "region_focus": "gia_lai_inland"
  },
  {
    "id": "nha-nghi-yaly",
    "name": "Nhà Nghỉ YALY",
    "address": "Thôn 9, Xã Biển Hồ",
    "latitude": 14.0936598,
    "longitude": 107.934492113,
    "phone": "0906584977",
    "type": "Nhà nghỉ du lịch",
    "star_rating": 2,
    "price_range": "",
    "province": "Gia Lai",
    "region": "Pleiku",
    "legacy_province": "Gia Lai",
    "region_focus": "gia_lai_inland"
  },
  {
    "id": "hani-house",
    "name": "HaNi House",
    "address": "49/2 Phù Đổng, Phường Pleiku",
    "latitude": 13.978257555210627,
    "longitude": 108.01452442516485,
    "phone": "0943647459",
    "type": "Homestay",
    "star_rating": 2,
    "price_range": "",
    "province": "Gia Lai",
    "region": "Pleiku",
    "legacy_province": "Gia Lai",
    "region_focus": "gia_lai_inland"
  },
  {
    "id": "trang-homestay-gia-lai",
    "name": "Trắng homestay Gia Lai",
    "address": "10 Lương Định Của, Phường Hội Phú",
    "latitude": 13.9696187,
    "longitude": 107.998201,
    "phone": "0987376505",
    "type": "Homestay",
    "star_rating": 2,
    "price_range": "",
    "province": "Gia Lai",
    "region": "Pleiku",
    "legacy_province": "Gia Lai",
    "region_focus": "gia_lai_inland"
  },
  {
    "id": "nha-nghi-hong-ha",
    "name": "Nhà nghỉ Hồng Hà",
    "address": "Thôn 6, Phường Pleiku",
    "latitude": 14.0010166,
    "longitude": 108.0518827,
    "phone": "02693555777",
    "type": "Nhà nghỉ du lịch",
    "star_rating": 2,
    "price_range": "",
    "province": "Gia Lai",
    "region": "Pleiku",
    "legacy_province": "Gia Lai",
    "region_focus": "gia_lai_inland"
  },
  {
    "id": "homestay-nha-toi",
    "name": "Homestay nhà tôi",
    "address": "439 Ngô Quyền, Phường Pleiku",
    "latitude": 14.0136519,
    "longitude": 108.0390415,
    "phone": "0981019501",
    "type": "Homestay",
    "star_rating": 2,
    "price_range": "",
    "province": "Gia Lai",
    "region": "Pleiku",
    "legacy_province": "Gia Lai",
    "region_focus": "gia_lai_inland"
  },
  {
    "id": "nha-nghi-thu-hien",
    "name": "Nhà nghỉ Thu Hiền",
    "address": "966 Trường Chinh, Xã Gào",
    "latitude": 13.9737099,
    "longitude": 108.0150596,
    "phone": "",
    "type": "Nhà nghỉ du lịch",
    "star_rating": 2,
    "price_range": "",
    "province": "Gia Lai",
    "region": "Pleiku",
    "legacy_province": "Gia Lai",
    "region_focus": "gia_lai_inland"
  },
  {
    "id": "nha-nghi-hoang-hai-hoi-phu",
    "name": "Nhà nghỉ Hoàng Hải (Hội Phú)",
    "address": "304 Trường Chinh, Phường Hội Phú",
    "latitude": 13.9600083,
    "longitude": 108.0111506,
    "phone": "0905324965",
    "type": "Nhà nghỉ du lịch",
    "star_rating": 2,
    "price_range": "",
    "province": "Gia Lai",
    "region": "Pleiku",
    "legacy_province": "Gia Lai",
    "region_focus": "gia_lai_inland"
  },
  {
    "id": "nha-nghi-sao-mai",
    "name": "Nhà Nghỉ Sao Mai",
    "address": "266 Phạm Văn Đồng, Phường Thống Nhất",
    "latitude": 14.00093,
    "longitude": 107.9963,
    "phone": "02693 828175",
    "type": "Nhà nghỉ du lịch",
    "star_rating": 2,
    "price_range": "",
    "province": "Gia Lai",
    "region": "Pleiku",
    "legacy_province": "Gia Lai",
    "region_focus": "gia_lai_inland"
  },
  {
    "id": "khach-san-truc-my",
    "name": "Khách sạn Trúc My",
    "address": "01 Trần Hưng Đạo, Phường Ayun Pa",
    "latitude": 13.9821528,
    "longitude": 108.0052478,
    "phone": "0983250346",
    "type": "Khách sạn",
    "star_rating": 3,
    "price_range": "",
    "province": "Gia Lai",
    "region": "Pleiku",
    "legacy_province": "Gia Lai",
    "region_focus": "gia_lai_inland"
  },
  {
    "id": "nha-nghi-xuan-hoa",
    "name": "Nhà nghỉ Xuân Hòa",
    "address": "Số 325 - Quang Trung, Xã Kbang",
    "latitude": 14.301794600000001,
    "longitude": 108.47937459255267,
    "phone": "0973860688",
    "type": "Nhà nghỉ du lịch",
    "star_rating": 2,
    "price_range": "",
    "province": "Gia Lai",
    "region": "Pleiku",
    "legacy_province": "Gia Lai",
    "region_focus": "gia_lai_inland"
  },
  {
    "id": "khach-san-thanh-luan",
    "name": "Khách sạn Thành Luân",
    "address": "Tổ 1, Phường An Khê",
    "latitude": 13.9719812,
    "longitude": 108.6750094,
    "phone": "0982722265",
    "type": "Khách sạn",
    "star_rating": 3,
    "price_range": "",
    "province": "Bình Định",
    "region": "Bình Định Nội Địa",
    "legacy_province": "Bình Định",
    "region_focus": "binh_dinh_inland"
  },
  {
    "id": "nha-nghi-anh-nguyen",
    "name": "Nhà nghỉ Ánh Nguyên",
    "address": "591 Phạm Văn Đồng, Phường Thống Nhất",
    "latitude": 14.0167267,
    "longitude": 107.9919161,
    "phone": "02693861789",
    "type": "Nhà nghỉ du lịch",
    "star_rating": 2,
    "price_range": "",
    "province": "Gia Lai",
    "region": "Pleiku",
    "legacy_province": "Gia Lai",
    "region_focus": "gia_lai_inland"
  },
  {
    "id": "nha-nghi-thanh-binh-chu-puh",
    "name": "Nhà nghỉ Thanh Bình Chư Pưh",
    "address": "01 Hùng Vương, Xã Chư Pưh",
    "latitude": 13.5589836,
    "longitude": 108.1025225,
    "phone": null,
    "type": "Nhà nghỉ du lịch",
    "star_rating": 2,
    "price_range": "",
    "province": "Gia Lai",
    "region": "Pleiku",
    "legacy_province": "Gia Lai",
    "region_focus": "gia_lai_inland"
  },
  {
    "id": "homestay-ngoi-que",
    "name": "Homestay Ngói Quê",
    "address": "CMT8 nối dài, Phường An Khê",
    "latitude": 13.9868488,
    "longitude": 108.0083335,
    "phone": "",
    "type": "Homestay",
    "star_rating": 2,
    "price_range": "",
    "province": "Bình Định",
    "region": "Bình Định Nội Địa",
    "legacy_province": "Bình Định",
    "region_focus": "binh_dinh_inland"
  },
  {
    "id": "khach-san-hoang-khiem",
    "name": "Khách sạn Hoàng Khiêm",
    "address": "Số 96, đường 17/3, Xã Chư Sê",
    "latitude": 13.68813074851736,
    "longitude": 108.08478721018422,
    "phone": "02693767777",
    "type": "Khách sạn",
    "star_rating": 3,
    "price_range": "",
    "province": "Gia Lai",
    "region": "Pleiku",
    "legacy_province": "Gia Lai",
    "region_focus": "gia_lai_inland"
  },
  {
    "id": "nha-nghi-huong-buoi",
    "name": "Nhà nghỉ Hương Bưởi",
    "address": "Xã Phú Thiện",
    "latitude": 17.0,
    "longitude": 23.0,
    "phone": null,
    "type": "Nhà nghỉ du lịch",
    "star_rating": 2,
    "price_range": "",
    "province": "Gia Lai",
    "region": "Pleiku",
    "legacy_province": "Gia Lai",
    "region_focus": "gia_lai_inland"
  },
  {
    "id": "nha-nghi-ho-huong",
    "name": "Nhà nghỉ Hồ Hương",
    "address": "60 Tạ Quang Bửu, Phường Pleiku",
    "latitude": 13.9847169,
    "longitude": 108.00938,
    "phone": "0982781179",
    "type": "Nhà nghỉ du lịch",
    "star_rating": 2,
    "price_range": "",
    "province": "Gia Lai",
    "region": "Pleiku",
    "legacy_province": "Gia Lai",
    "region_focus": "gia_lai_inland"
  },
  {
    "id": "nha-nghi-hoang-viet",
    "name": "Nhà nghỉ Hoàng Việt",
    "address": "43 Nguyễn Tất Thành, Phường Diên Hồng",
    "latitude": 13.9829132,
    "longitude": 108.00677,
    "phone": "02693830840",
    "type": "Nhà nghỉ du lịch",
    "star_rating": 2,
    "price_range": "",
    "province": "Gia Lai",
    "region": "Pleiku",
    "legacy_province": "Gia Lai",
    "region_focus": "gia_lai_inland"
  },
  {
    "id": "plei-homestay-cafe",
    "name": "Plei Homestay & Cafe",
    "address": "01a Bùi Dự, Phường Pleiku",
    "latitude": 13.9924984,
    "longitude": 108.021676,
    "phone": "0914013888",
    "type": "Homestay",
    "star_rating": 2,
    "price_range": "",
    "province": "Gia Lai",
    "region": "Pleiku",
    "legacy_province": "Gia Lai",
    "region_focus": "gia_lai_inland"
  },
  {
    "id": "dona-homestay",
    "name": "Dona Homestay",
    "address": "Phường Quy Nhơn",
    "latitude": 13.764111,
    "longitude": 109.219864,
    "phone": "0967 188 179",
    "type": "Homestay",
    "star_rating": 2,
    "price_range": "",
    "province": "Bình Định",
    "region": "Quy Nhơn",
    "legacy_province": "Bình Định",
    "region_focus": "coastal_quy_nhon"
  },
  {
    "id": "homestay-nha-muoi",
    "name": "Homestay Nhà Muội",
    "address": "11 Ngô Văn Sở, Phường Quy Nhơn",
    "latitude": 13.764395,
    "longitude": 109.224259,
    "phone": "0973967966 ",
    "type": "Homestay",
    "star_rating": 2,
    "price_range": "",
    "province": "Bình Định",
    "region": "Quy Nhơn",
    "legacy_province": "Bình Định",
    "region_focus": "coastal_quy_nhon"
  },
  {
    "id": "khach-san-casablanca",
    "name": "Khách sạn Casablanca",
    "address": "178 Nguyễn Huệ, Phường Quy Nhơn",
    "latitude": 13.770268,
    "longitude": 109.23374,
    "phone": "089 8171788",
    "type": "Nhà nghỉ du lịch",
    "star_rating": 2,
    "price_range": "",
    "province": "Bình Định",
    "region": "Quy Nhơn",
    "legacy_province": "Bình Định",
    "region_focus": "coastal_quy_nhon"
  },
  {
    "id": "khach-san-khang-khang-3",
    "name": "Khách sạn Khang Khang 3",
    "address": "55A Chương Dương, Phường Quy Nhơn Nam",
    "latitude": 13.752564,
    "longitude": 109.213886,
    "phone": "0256 3535 727",
    "type": "Nhà nghỉ du lịch",
    "star_rating": 2,
    "price_range": "",
    "province": "Bình Định",
    "region": "Quy Nhơn",
    "legacy_province": "Bình Định",
    "region_focus": "coastal_quy_nhon"
  },
  {
    "id": "khach-san-hoang-dung-01",
    "name": "Khách sạn Hoàng Dũng 01",
    "address": "137 Phan Đình Phùng, Phường Quy Nhơn",
    "latitude": 13.781363,
    "longitude": 109.229019,
    "phone": "0256 6252 109",
    "type": "Nhà nghỉ du lịch",
    "star_rating": 2,
    "price_range": "",
    "province": "Bình Định",
    "region": "Quy Nhơn",
    "legacy_province": "Bình Định",
    "region_focus": "coastal_quy_nhon"
  },
  {
    "id": "khach-san-hoang-sa",
    "name": "Khách sạn Hoàng Sa",
    "address": "65 Trần Văn Ơn, Phường Quy Nhơn Nam",
    "latitude": 13.756659,
    "longitude": 109.214039,
    "phone": "02563604888",
    "type": "Nhà nghỉ du lịch",
    "star_rating": 2,
    "price_range": "",
    "province": "Bình Định",
    "region": "Quy Nhơn",
    "legacy_province": "Bình Định",
    "region_focus": "coastal_quy_nhon"
  },
  {
    "id": "khach-san-ngoc-quy",
    "name": "Khách sạn Ngọc Quý",
    "address": "02/39 Phạm Ngọc Thạch, Phường Quy Nhơn",
    "latitude": 13.768281,
    "longitude": 109.224586,
    "phone": "0907709769",
    "type": "Nhà nghỉ du lịch",
    "star_rating": 2,
    "price_range": "",
    "province": "Bình Định",
    "region": "Quy Nhơn",
    "legacy_province": "Bình Định",
    "region_focus": "coastal_quy_nhon"
  },