[
  {
    "id": "pis-house-pleiku",
    "name": "Pi's House Pleiku",
    "type": "Homestay",
    "address": "Pleiku, Gia Lai",
    "phone": "",
    "latitude": 13.9700,
    "longitude": 108.0000,
    "price_range": "200.000 - 400.000 VND",
    "star_rating": 2
  },
  {
    "id": "arora-home-pleiku",
    "name": "Arora Home Pleiku",
    "type": "Homestay",
    "address": "Pleiku, Gia Lai",
    "phone": "",
    "latitude": 13.9720,
    "longitude": 108.0010,
    "price_range": "200.000 - 400.000 VND",
    "star_rating": 2
  },
  {
    "id": "la-mia-lakeview-hotel",
    "name": "LA MIA Lakeview Hotel",
    "type": "Khách sạn",
    "address": "Pleiku, Gia Lai",
    "phone": "",
    "latitude": 13.9750,
    "longitude": 108.0050,
    "price_range": "400.000 - 800.000 VND",
    "star_rating": 3
  },
  {
    "id": "cao-nguyen-hotel-pleiku",
    "name": "Cao Nguyen Hotel Pleiku",
    "type": "Khách sạn",
    "address": "Pleiku, Gia Lai",
    "phone": "",
    "latitude": 13.9760,
    "longitude": 108.0030,
    "price_range": "267.000 - 500.000 VND",
    "star_rating": 3
  },
  {
    "id": "nha-nghi-kim-lai",
    "name": "Nhà nghỉ Kim Lài",
    "type": "Nhà nghỉ",
    "address": "Pleiku, Gia Lai",
    "phone": "",
    "latitude": 13.9740,
    "longitude": 108.0020,
    "price_range": "198.000 - 300.000 VND",
    "star_rating": 2
  },
  {
    "id": "tien-son-homestay-pleiku",
    "name": "Tiên Sơn Homestay Pleiku",
    "type": "Homestay",
    "address": "Pleiku, Gia Lai",
    "phone": "",
    "latitude": 13.9680,
    "longitude": 108.0040,
    "price_range": "150.000 - 300.000 VND",
    "star_rating": 2
  },
  {
    "id": "khach-san-tre-xanh-pleiku",
    "name": "Khách sạn Tre Xanh Pleiku",
    "type": "Khách sạn",
    "address": "Pleiku, Gia Lai",
    "phone": "",
    "latitude": 13.9770,
    "longitude": 107.9990,
    "price_range": "200.000 - 400.000 VND",
    "star_rating": 2
  },
  {
    "id": "the-stay-apartment-pleiku",
    "name": "The Stay Apartment",
    "type": "Homestay",
    "address": "Pleiku, Gia Lai",
    "phone": "",
    "latitude": 13.9710,
    "longitude": 108.0060,
    "price_range": "179.000 - 350.000 VND",
    "star_rating": 2
  },
  {
    "id": "plei-homestay-cafe",
    "name": "Plei Homestay & Cafe",
    "type": "Homestay",
    "address": "Pleiku, Gia Lai",
    "phone": "",
    "latitude": 13.9690,
    "longitude": 108.0010,
    "price_range": "150.000 - 300.000 VND",
    "star_rating": 2
  },
  {
    "id": "biet-thu-nghi-duong-ky-co",
    "name": "Biệt thự nghỉ dưỡng Kỳ Co",
    "type": "Villa",
    "address": "Nhơn Lý, Quy Nhơn, Bình Định",
    "phone": "",
    "latitude": 13.8100,
    "longitude": 109.2800,
    "price_range": "2.500.000 - 10.000.000 VND",
    "star_rating": 4
  }
]
